,city,Cloudiness,Country,Humidity,Latitude,Longitude,Max Temperature,Wind Speed
0,krasnozerskoye,0.0,RU,69.0,53.98,79.24,46.34,7.96
1,kutum,76.0,SD,38.0,14.2,24.66,75.14,4.27
2,rikitea,64.0,PF,100.0,-23.12,-134.97,71.68,10.2
3,ushuaia,40.0,AR,65.0,-54.81,-68.31,44.6,2.71
5,port alfred,76.0,ZA,92.0,-33.59,26.89,69.52,10.65
6,albany,40.0,US,86.0,42.65,-73.75,33.8,3.83
7,cidreira,88.0,BR,94.0,-30.17,-50.22,65.96,7.18
8,mataura,44.0,NZ,70.0,-46.19,168.86,53.68,6.06
9,tabou,48.0,CI,100.0,4.42,-7.36,79.42,3.38
10,kupang,20.0,ID,66.0,-10.16,123.6,89.68,6.17
11,victoria,75.0,BN,83.0,5.28,115.24,84.2,3.36
12,arraial do cabo,80.0,BR,99.0,-22.97,-42.02,70.96,17.69
13,uruzgan,0.0,AF,29.0,32.93,66.63,57.37,2.71
14,punta arenas,90.0,CL,87.0,-53.16,-70.91,44.6,14.99
15,longyearbyen,75.0,NO,74.0,78.22,15.63,28.4,11.41
17,kabanjahe,36.0,ID,88.0,3.1,98.49,75.46,2.04
20,atuona,24.0,PF,100.0,-9.8,-139.03,79.73,15.46
22,upernavik,0.0,GL,100.0,72.79,-56.15,17.18,8.97
23,semey,0.0,KZ,48.0,50.41,80.25,50.48,9.86
24,hilo,90.0,US,94.0,19.71,-155.08,75.2,5.82
25,altea,0.0,ES,87.0,38.6,-0.05,55.4,5.82
26,kavaratti,0.0,IN,100.0,10.57,72.64,84.68,5.61
28,vaini,0.0,IN,67.0,15.34,74.49,84.68,8.52
29,upington,0.0,ZA,17.0,-28.46,21.24,71.6,2.93
31,cabo san lucas,5.0,MX,73.0,22.89,-109.91,75.2,3.36
32,esperance,20.0,TT,88.0,10.24,-61.45,78.8,5.95
33,qasigiannguit,0.0,GL,55.0,68.82,-51.19,10.4,2.24
34,cape town,0.0,ZA,82.0,-33.93,18.42,64.4,13.87
35,jingcheng,8.0,CN,62.0,24.58,117.5,84.2,6.71
36,vestmannaeyjar,0.0,IS,100.0,63.44,-20.27,35.86,17.69
37,vilyuysk,80.0,RU,82.0,63.75,121.63,24.79,4.05
38,batamshinskiy,0.0,KZ,49.0,50.56,58.27,55.4,24.61
39,indri,8.0,IN,71.0,29.88,77.05,77.71,6.73
40,bluff,0.0,AU,22.0,-23.58,149.07,97.73,7.74
41,krasnyy yar,64.0,RU,100.0,50.7,44.73,40.54,11.43
42,saint-philippe,1.0,CA,82.0,45.36,-73.48,32.0,9.17
43,padang,32.0,ID,100.0,-0.92,100.36,82.34,5.17
44,belyy yar,0.0,RU,80.0,53.6,91.39,41.0,2.24
45,ketchikan,90.0,US,71.0,55.34,-131.65,53.6,9.17
46,qaanaaq,68.0,GL,100.0,77.48,-69.36,11.02,11.77
47,guerrero negro,0.0,MX,100.0,27.97,-114.04,63.44,5.73
48,saskylakh,76.0,RU,85.0,71.97,114.09,15.34,7.63
49,thompson,90.0,CA,79.0,55.74,-97.86,28.4,5.82
50,busselton,0.0,AU,75.0,-33.64,115.35,72.4,12.77
51,mahebourg,40.0,MU,65.0,-20.41,57.7,77.0,9.17
52,necochea,12.0,AR,99.0,-38.55,-58.74,45.53,5.28
53,marica,90.0,BR,94.0,-22.92,-42.82,71.6,2.24
54,eyl,56.0,SO,94.0,7.98,49.82,79.78,4.05
55,manicore,0.0,BR,80.0,-5.81,-61.3,78.11,1.36
56,tuktoyaktuk,90.0,CA,92.0,69.44,-133.03,19.4,8.05
57,spas-demensk,88.0,RU,93.0,54.41,34.03,33.34,5.39
58,hobart,0.0,AU,54.0,-42.88,147.33,60.8,18.34
59,jamestown,0.0,AU,24.0,-33.21,138.6,81.4,6.96
60,kodiak,90.0,US,100.0,39.95,-94.76,46.4,5.82
61,geraldton,90.0,CA,92.0,49.72,-86.95,30.2,9.17
62,bulungu,88.0,CD,91.0,-4.54,18.6,72.53,4.38
63,tuatapere,92.0,NZ,100.0,-46.13,167.69,48.1,4.61
64,hithadhoo,36.0,MV,100.0,-0.6,73.08,82.43,8.86
65,luderitz,12.0,NA,38.0,-26.65,15.16,77.0,1.12
66,kijang,90.0,KR,82.0,35.24,129.21,66.2,6.93
68,butaritari,8.0,KI,100.0,3.07,172.79,86.03,5.17
69,awbari,0.0,LY,83.0,26.59,12.77,54.44,7.18
70,abalak,0.0,NE,62.0,15.46,6.28,71.5,2.48
71,mahajanga,0.0,MG,51.0,-15.72,46.32,80.6,9.17
72,nanakuli,20.0,US,83.0,21.39,-158.15,80.6,17.47
73,faanui,68.0,PF,99.0,-16.48,-151.75,81.4,12.66
74,kapaa,75.0,US,74.0,22.08,-159.32,80.6,16.11
75,clyde river,75.0,CA,100.0,70.47,-68.59,15.8,16.11
76,atar,88.0,MR,31.0,20.52,-13.05,81.89,6.96
77,richards bay,0.0,ZA,66.0,-28.77,32.06,74.24,5.95
80,castro,92.0,CL,98.0,-42.48,-73.76,45.98,4.16
81,zhangye,0.0,CN,77.0,38.94,100.46,50.44,4.5
82,kruisfontein,36.0,ZA,81.0,-34.0,24.73,65.2,3.71
83,provideniya,75.0,RU,80.0,64.42,-173.23,30.2,26.84
84,zapolyarnyy,90.0,RU,100.0,69.43,30.82,32.0,11.41
85,moron,88.0,VE,97.0,10.49,-68.2,71.54,2.71
86,ternate,40.0,PH,55.0,14.29,120.72,89.6,9.17
87,fairbanks,90.0,US,71.0,64.84,-147.72,39.2,9.17
88,mar del plata,76.0,AR,86.0,-46.43,-67.52,49.31,8.19
89,bose,40.0,IT,87.0,45.46,8.01,57.2,1.12
90,bredasdorp,76.0,ZA,82.0,-34.53,20.04,66.2,1.12
91,cherskiy,0.0,RU,58.0,68.75,161.3,-11.94,2.37
92,east london,40.0,ZA,88.0,-33.02,27.91,66.2,12.75
93,nanortalik,88.0,GL,98.0,60.14,-45.24,33.11,34.25
94,barrow,68.0,AR,97.0,-38.31,-60.23,47.2,6.62
95,dir,76.0,CM,100.0,6.33,13.54,63.49,4.5
96,constantine,0.0,DZ,93.0,36.36,6.61,46.4,3.04
98,svetlogorsk,75.0,RU,43.0,53.14,59.15,51.8,13.42
100,yellowknife,75.0,CA,92.0,62.45,-114.38,30.2,9.17
101,srandakan,48.0,ID,88.0,-7.94,110.25,80.99,7.74
103,airai,12.0,TL,37.0,-8.93,125.41,87.07,1.59
105,amot,75.0,NO,92.0,59.57,7.99,26.6,3.36
106,aswan,0.0,EG,37.0,24.09,32.9,71.6,6.93
107,saint anthony,90.0,US,70.0,43.97,-111.68,44.6,8.05
108,udachnyy,68.0,RU,80.0,66.42,112.4,19.79,3.15
109,auki,0.0,NG,85.0,12.18,6.51,66.59,3.38
110,campbell river,90.0,CA,100.0,50.02,-125.24,51.8,8.05
111,la palma,68.0,CO,97.0,5.36,-74.39,67.9,1.48
112,avarua,90.0,CK,88.0,-21.21,-159.78,71.6,9.17
113,ribeira grande,76.0,PT,99.0,38.52,-28.7,68.39,13.22
114,morondava,0.0,MG,69.0,-20.3,44.28,82.12,3.71
115,port-gentil,24.0,GA,100.0,-0.72,8.78,78.38,5.95
116,champerico,20.0,MX,88.0,16.38,-93.6,73.4,2.04
120,waingapu,24.0,ID,98.0,-9.65,120.26,79.69,3.15
121,ust-nera,88.0,RU,92.0,64.57,143.24,13.76,2.04
122,chisinau,40.0,MD,76.0,47.01,28.86,48.2,12.75
124,saint george,0.0,GR,60.0,39.45,22.34,42.8,5.82
125,codrington,20.0,AU,53.0,-28.95,153.24,80.54,4.94
126,binghamton,90.0,US,74.0,42.1,-75.91,33.8,4.7
127,strezhevoy,0.0,RU,80.0,60.73,77.6,41.0,11.18
128,srednekolymsk,44.0,RU,81.0,67.46,153.71,1.39,4.05
130,sur,0.0,OM,81.0,22.57,59.53,86.71,4.16
131,lebu,40.0,ET,71.0,8.96,38.73,55.4,1.92
132,alpena,90.0,US,87.0,45.06,-83.43,42.8,3.36
133,ashitkovo,88.0,RU,99.0,57.12,28.75,35.63,8.75
134,bambous virieux,40.0,MU,65.0,-20.34,57.76,77.0,9.17
135,severo-kurilsk,92.0,RU,98.0,50.68,156.12,44.86,1.92
136,egvekinot,0.0,RU,69.0,66.32,-179.17,8.99,3.71
138,vila velha,40.0,BR,83.0,-3.71,-38.6,78.8,11.41
141,coos bay,20.0,US,82.0,43.37,-124.22,60.8,6.73
142,esso,88.0,RU,94.0,55.93,158.7,30.28,3.27
143,sitka,0.0,US,88.0,37.17,-99.65,40.27,2.93
144,samba,12.0,IN,34.0,32.56,75.12,79.19,3.6
145,kahului,40.0,US,78.0,20.89,-156.47,78.8,16.11
146,sinnamary,44.0,GF,94.0,5.38,-52.96,81.58,9.64
147,georgetown,0.0,GY,100.0,6.8,-58.16,77.0,4.7
148,fallon,1.0,US,60.0,46.84,-105.12,41.0,6.51
149,college,90.0,US,71.0,64.86,-147.8,39.2,9.17
150,dobric,90.0,RO,87.0,47.25,24.13,44.6,2.24
151,fengcheng,12.0,CN,70.0,40.45,124.07,48.86,8.63
152,bambanglipuro,48.0,ID,88.0,-7.95,110.28,80.99,7.74
153,mbigou,76.0,GA,96.0,-1.9,11.91,69.29,2.71
154,itarema,68.0,BR,91.0,-2.92,-39.92,75.91,11.99
155,chokurdakh,8.0,RU,66.0,70.62,147.9,-0.19,2.93
158,kavieng,80.0,PG,100.0,-2.57,150.8,80.14,9.75
159,vredendal,0.0,ZA,38.0,-31.68,18.49,79.24,3.6
160,fort nelson,75.0,CA,86.0,58.81,-122.69,30.2,2.24
161,blankenberge,75.0,BE,81.0,51.31,3.13,51.8,10.29
162,mayo,75.0,CA,65.0,63.59,-135.9,41.0,8.05
163,la paz,5.0,MX,73.0,24.15,-110.32,71.6,5.82
164,bathsheba,20.0,BB,88.0,13.22,-59.52,75.2,4.7
165,ankang,0.0,CN,37.0,32.73,108.99,61.73,2.15
166,dikson,48.0,RU,100.0,73.51,80.55,24.83,19.48
167,hermanus,0.0,ZA,62.0,-34.42,19.24,68.53,4.38
168,puerto ayora,68.0,EC,100.0,-0.74,-90.35,68.62,12.66
169,amahai,32.0,ID,100.0,-3.31,129.0,83.33,6.17
170,laguna,0.0,MX,83.0,27.52,-110.01,67.9,2.59
171,puro,68.0,PH,93.0,13.13,123.76,80.14,5.06
172,souillac,90.0,FR,93.0,45.6,-0.6,42.8,2.24
173,nouadhibou,40.0,MR,88.0,20.93,-17.03,69.8,6.93
175,dashitou,92.0,CN,100.0,43.3,128.5,46.79,7.07
176,vardo,1.0,US,70.0,39.62,-77.74,44.6,2.37
177,aksarka,92.0,RU,100.0,66.56,67.8,36.71,4.83
178,tasiilaq,20.0,GL,67.0,65.61,-37.64,21.2,3.36
179,tautira,40.0,PF,69.0,-17.73,-149.15,80.6,8.05
180,guapi,92.0,CO,98.0,2.57,-77.89,74.69,2.59
181,abbeville,90.0,FR,76.0,50.11,1.83,51.8,10.29
182,saint-ambroise,90.0,FR,100.0,47.25,-0.65,44.6,2.24
183,faya,40.0,SA,72.0,18.39,42.45,66.2,2.71
184,lompoc,90.0,US,93.0,34.64,-120.46,59.0,5.82
185,manaure,44.0,CO,99.0,11.78,-72.45,82.84,17.92
186,belmonte,76.0,PT,85.0,40.36,-7.35,46.21,2.71
187,vila franca do campo,75.0,PT,88.0,37.72,-25.43,66.2,11.41
188,el alto,75.0,BO,81.0,-16.5,-68.19,42.8,5.82
190,houston,1.0,US,82.0,29.76,-95.37,60.8,4.7
191,chuy,76.0,UY,93.0,-33.69,-53.46,61.24,8.41
192,khatanga,80.0,RU,90.0,71.98,102.47,11.29,7.07
193,masingbi,0.0,SL,92.0,8.64,-11.47,69.97,3.04
194,muros,0.0,ES,100.0,42.77,-9.06,46.4,3.36
195,praia da vitoria,40.0,PT,88.0,38.73,-27.07,66.2,15.12
196,sechura,44.0,PE,97.0,-5.56,-80.82,63.53,10.2
197,kisaran,44.0,ID,76.0,2.98,99.62,86.62,3.83
198,acapulco,20.0,MX,78.0,16.86,-99.88,82.4,2.24
199,naberera,92.0,TZ,99.0,-4.2,36.93,65.06,8.08
200,torrevieja,8.0,ES,93.0,37.98,-0.68,55.4,3.36
201,banepa,20.0,NP,43.0,27.63,85.52,71.6,3.36
202,leshukonskoye,92.0,RU,87.0,64.9,45.76,30.1,5.5
203,port moresby,40.0,PG,62.0,-9.47,147.16,84.2,17.22
204,verkhoyansk,68.0,RU,83.0,67.55,133.39,2.69,2.93
205,westport,75.0,IE,93.0,53.8,-9.52,39.2,11.41
206,visnes,0.0,NO,86.0,59.36,5.22,41.0,4.7
207,namatanai,92.0,PG,100.0,-3.66,152.44,77.66,8.19
208,lagoa,40.0,PT,93.0,37.14,-8.45,66.2,6.93
209,russell,0.0,AR,72.0,-33.01,-68.8,60.8,4.7
210,buraydah,40.0,SA,88.0,26.33,43.97,73.4,9.17
211,carnarvon,0.0,ZA,21.0,-30.97,22.13,67.54,10.31
212,mkushi,56.0,ZM,42.0,-13.61,29.4,69.29,9.64
214,tukums,40.0,LV,93.0,56.97,23.17,35.6,5.82
215,potosi,76.0,BO,80.0,-19.59,-65.75,37.3,1.81
216,ossora,92.0,RU,96.0,59.24,163.07,37.43,5.73
217,lexington,90.0,US,62.0,38.05,-84.5,51.8,6.93
218,alofi,100.0,NU,100.0,-19.06,-169.92,75.2,4.7
219,parakan,64.0,ID,92.0,-7.45,109.59,75.1,1.92
220,sao felix do xingu,8.0,BR,91.0,-6.64,-51.99,75.91,1.92
221,kirakira,36.0,SB,100.0,-10.46,161.92,82.66,8.08
222,pavino,0.0,RU,56.0,55.02,82.61,44.6,6.71
223,new norfolk,0.0,AU,62.0,-42.78,147.06,60.8,18.34
224,yima,0.0,CN,31.0,34.75,111.87,53.32,15.68
225,mwingi,80.0,KE,100.0,-0.93,38.07,66.86,4.38
227,bethel,40.0,US,86.0,60.79,-161.76,33.8,10.29
228,saldanha,68.0,PT,87.0,41.42,-6.55,42.7,2.48
230,kudat,75.0,MY,74.0,6.89,116.84,86.0,3.36
231,sola,75.0,NO,93.0,58.89,5.65,42.8,2.24
232,bulawayo,20.0,ZW,45.0,-20.16,28.59,67.45,6.73
233,candolim,0.0,IN,82.0,15.52,73.76,89.77,6.17
234,coihaique,0.0,CL,71.0,-45.58,-72.07,50.0,6.93
235,the valley,20.0,AI,83.0,18.22,-63.06,78.8,3.36
236,calatayud,0.0,ES,93.0,41.35,-1.64,53.6,3.15
237,sibenik,76.0,HR,88.0,45.81,17.18,44.81,2.93
238,katangli,0.0,RU,84.0,51.71,143.23,44.32,18.14
239,trincomalee,68.0,LK,88.0,8.58,81.23,83.11,8.41
240,san luis,76.0,AR,83.0,-33.3,-66.34,60.29,5.39
241,lamar,1.0,US,87.0,38.09,-102.62,42.8,6.93
242,iqaluit,90.0,CA,67.0,63.75,-68.52,21.2,9.17
243,priiskovyy,76.0,RU,55.0,51.93,116.63,34.19,13.67
244,poltavka,0.0,RU,69.0,54.36,71.76,46.57,9.64
245,mattru,0.0,SL,94.0,7.62,-11.83,73.43,3.49
246,mount gambier,48.0,AU,72.0,-37.83,140.78,61.87,5.73
247,bereda,0.0,ES,93.0,43.27,-7.54,50.0,2.24
248,norman wells,90.0,CA,92.0,65.28,-126.83,26.6,2.59
249,pozega,0.0,RS,69.0,43.85,20.05,39.2,3.36
250,tiksi,0.0,RU,74.0,71.64,128.87,-3.03,2.93
251,troitskoye,0.0,RU,50.0,52.98,84.68,49.94,3.6
253,matsusaka,75.0,JP,68.0,34.59,136.54,69.8,3.36
254,dovers,92.0,VC,100.0,12.88,-61.18,80.99,13.0
255,fortuna,0.0,ES,87.0,38.18,-1.13,55.4,5.82
256,northam,40.0,GB,81.0,51.04,-4.21,50.0,5.82
257,tiznit,92.0,MA,100.0,29.7,-9.73,63.26,4.94
258,klaksvik,92.0,FO,74.0,62.23,-6.59,37.4,21.92
259,pandan,68.0,PH,100.0,11.72,122.09,81.22,14.34
260,orsta,75.0,NO,100.0,62.2,6.13,37.4,1.12
261,katobu,68.0,ID,66.0,-4.94,122.53,90.94,2.15
262,vaijapur,0.0,IN,39.0,19.92,74.72,88.51,7.18
264,pangnirtung,88.0,CA,98.0,66.15,-65.72,18.53,7.52
265,san patricio,88.0,PY,88.0,-26.98,-56.83,72.26,3.6
266,hami,0.0,CN,45.0,42.84,93.51,54.49,2.82
267,hamilton,75.0,BM,52.0,32.3,-64.78,69.8,10.29
268,sao joao da barra,100.0,BR,100.0,-21.64,-41.05,71.54,15.68
270,jacareacanga,0.0,BR,67.0,-6.22,-57.76,80.05,3.71
271,magdiwang,75.0,PH,66.0,12.49,122.51,87.8,13.87
272,nosy varika,20.0,MG,93.0,-20.58,48.53,73.88,2.37
273,erenhot,0.0,CN,38.0,43.65,111.97,35.54,22.06
274,svetlaya,56.0,RU,97.0,46.54,138.33,50.93,13.56
275,ampanihy,0.0,MG,59.0,-24.69,44.75,75.64,7.85
276,huarmey,32.0,PE,85.0,-10.07,-78.15,53.81,3.15
277,uyuni,32.0,BO,28.0,-20.46,-66.82,37.16,4.61
278,umm kaddadah,20.0,SD,22.0,13.6,26.69,79.06,9.64
281,narsaq,92.0,GL,63.0,60.91,-46.05,28.4,2.24
282,labuhan,36.0,ID,92.0,-2.54,115.51,80.68,3.04
283,sandwick,92.0,GB,100.0,54.57,-2.89,35.6,8.05
284,tura,0.0,IN,81.0,25.52,90.21,80.36,4.16
285,znamenskoye,0.0,RU,73.0,57.13,73.82,45.89,14.0
286,surt,68.0,LY,100.0,31.21,16.59,70.19,7.74
287,carutapera,44.0,BR,87.0,-1.2,-46.02,79.28,10.2
288,angoche,0.0,MZ,100.0,-16.23,39.91,77.8,14.0
289,takoradi,48.0,GH,100.0,4.89,-1.75,78.25,5.17
290,berlevag,40.0,NO,74.0,70.86,29.09,37.4,18.34
293,waitati,88.0,NZ,100.0,-45.75,170.57,46.93,5.73
294,lorengau,88.0,PG,100.0,-2.02,147.27,81.89,2.93
295,yerbogachen,80.0,RU,75.0,61.28,108.01,32.03,8.63
296,erzurum,75.0,TR,100.0,39.91,41.27,39.2,2.59
297,rockland,90.0,US,51.0,42.13,-70.92,39.2,6.93
298,manacapuru,0.0,BR,61.0,-3.3,-60.62,81.4,4.94
299,port lincoln,0.0,AU,78.0,-34.72,135.86,65.2,11.99
300,fare,100.0,PF,97.0,-16.7,-151.02,81.13,11.21
301,tomatlan,0.0,MX,94.0,19.93,-105.25,69.56,1.36
302,leningradskiy,76.0,RU,100.0,69.38,178.42,23.26,22.62
303,salalah,0.0,OM,48.0,17.01,54.1,84.2,3.94
304,bonfim,0.0,GY,50.0,3.36,-59.84,81.98,10.98
305,batemans bay,0.0,AU,68.0,-35.71,150.18,65.69,5.28
306,gat,0.0,SN,92.0,14.69,-16.54,76.54,8.52
307,paamiut,92.0,GL,100.0,61.99,-49.67,34.06,21.61
308,hervey bay,0.0,AU,78.0,-25.3,152.85,79.01,14.23
309,newport,90.0,GB,87.0,51.59,-3.0,50.0,13.87
310,luganville,80.0,VU,100.0,-15.51,167.18,79.51,9.64
311,suluq,20.0,LY,87.0,31.67,20.25,57.2,3.94
312,tiarei,40.0,PF,69.0,-17.53,-149.33,80.6,8.05
313,butterworth,75.0,MY,74.0,5.4,100.37,89.6,9.17
314,samarai,64.0,PG,100.0,-10.62,150.67,78.56,12.21
315,saint marys,1.0,US,80.0,41.43,-78.56,33.8,4.7
316,broome,75.0,GB,87.0,52.47,1.45,50.0,11.41
317,balakovo,64.0,RU,100.0,52.02,47.82,42.83,14.0
318,saint stephen,90.0,US,100.0,45.7,-94.27,46.4,6.93
319,talnakh,92.0,RU,96.0,69.49,88.39,23.66,6.73
320,pringsewu,48.0,ID,75.0,-5.36,104.98,84.86,3.6
321,ponta do sol,0.0,BR,93.0,-20.63,-46.0,60.52,2.37
322,mondlo,0.0,ZA,30.0,-27.96,30.72,71.41,4.05
323,antalaha,12.0,MG,79.0,-14.9,50.28,76.99,10.42
324,pisco,0.0,PE,82.0,-13.71,-76.2,62.6,3.36
325,drumheller,8.0,CA,74.0,51.47,-112.7,33.29,2.82
326,zahir pir,0.0,PK,68.0,28.81,70.52,79.06,9.64
327,nikolskoye,75.0,RU,92.0,59.7,30.79,30.2,2.24
328,camacha,20.0,PT,93.0,33.08,-16.33,64.4,4.7
329,urambo,8.0,TZ,49.0,-5.07,32.07,76.72,6.96
330,hambantota,36.0,LK,100.0,6.12,81.12,81.49,4.83
331,menongue,68.0,AO,57.0,-14.66,17.68,64.57,4.72
332,kaitangata,100.0,NZ,70.0,-46.28,169.85,52.69,3.04
333,lermontovka,88.0,RU,52.0,47.15,134.34,50.26,9.75
334,port elizabeth,1.0,US,93.0,39.31,-74.98,44.6,4.7
335,ostrovnoy,88.0,RU,86.0,68.05,39.51,32.35,14.45
336,general pico,36.0,AR,89.0,-35.66,-63.75,48.73,2.93
337,ancud,92.0,CL,96.0,-41.87,-73.83,47.83,4.16
339,tayshet,44.0,RU,73.0,55.94,98.01,38.74,8.19
340,kununurra,36.0,AU,24.0,-15.77,128.74,102.2,8.05
341,qaqortoq,100.0,GL,63.0,60.72,-46.03,28.4,2.24
342,dicabisagan,56.0,PH,97.0,17.08,122.42,80.18,9.31
343,arlit,0.0,NE,40.0,18.74,7.39,64.84,4.5
346,san ramon,92.0,NI,95.0,12.92,-85.84,68.62,2.15
347,seddon,20.0,NZ,91.0,-41.67,174.07,54.76,5.73
348,coquimbo,0.0,CL,93.0,-29.95,-71.34,51.8,5.82
349,bandarbeyla,56.0,SO,98.0,9.49,50.81,77.39,4.94
350,edwardsville,90.0,US,93.0,38.81,-89.95,48.2,3.36
351,barcelos,75.0,PT,100.0,41.53,-8.62,53.6,2.24
352,dingle,32.0,PH,52.0,11.0,122.67,90.49,7.4
354,sangar,48.0,RU,75.0,63.92,127.47,11.56,2.48
355,yaan,88.0,NG,95.0,7.38,8.57,75.28,8.19
356,butajira,36.0,ET,55.0,8.12,38.38,62.5,3.38
357,san quintin,40.0,PH,62.0,17.54,120.52,89.6,9.17
358,verkhnyaya inta,80.0,RU,87.0,65.99,60.32,37.43,3.6
359,archidona,92.0,EC,96.0,-0.91,-77.81,60.97,3.49
360,baracoa,44.0,CU,100.0,20.35,-74.5,78.25,7.18
361,okhotsk,92.0,RU,100.0,59.36,143.24,40.31,3.83
362,adrar,0.0,DZ,57.0,27.87,-0.29,55.4,8.05
363,melfi,0.0,IT,100.0,41.0,15.66,55.4,20.8
364,sterling,75.0,US,87.0,39.0,-77.4,44.6,2.93
365,almaznyy,0.0,RU,100.0,48.03,40.04,36.71,8.3
366,skibbereen,40.0,IE,75.0,51.55,-9.27,42.8,12.75
367,curup,24.0,ID,65.0,-3.47,102.53,82.79,1.59
368,anadyr,0.0,RU,84.0,64.73,177.51,6.8,11.18
369,haines junction,12.0,CA,92.0,60.75,-137.51,28.79,2.71
370,pascoag,1.0,US,58.0,41.96,-71.7,37.4,6.93
372,melfort,75.0,CA,91.0,52.87,-104.61,33.8,11.41
373,mega,92.0,ET,90.0,4.06,38.32,64.79,6.4
374,pouebo,92.0,NC,92.0,-20.4,164.57,72.58,2.48
375,hinton,80.0,CA,82.0,53.4,-117.57,32.89,2.71
376,madras,1.0,US,77.0,44.63,-121.13,57.2,9.17
377,tete,20.0,MZ,60.0,-16.16,33.59,75.2,9.17
378,poum,0.0,MK,75.0,41.28,20.71,29.2,1.81
379,langsa,48.0,ID,88.0,4.47,97.97,80.63,2.59
380,pasighat,0.0,IN,43.0,28.06,95.33,77.62,2.15
381,inuvik,75.0,CA,92.0,68.36,-133.71,17.6,3.36
382,touros,88.0,BR,93.0,-5.2,-35.46,77.26,11.65
383,kijini,75.0,TZ,94.0,-5.85,39.32,75.2,5.82
384,whitianga,0.0,NZ,93.0,-36.83,175.7,63.4,14.67
385,bara,48.0,NG,69.0,10.41,10.6,78.61,9.19
386,ilulissat,0.0,GL,55.0,69.22,-51.1,10.4,2.24
387,juba,80.0,EE,100.0,57.82,26.93,35.6,6.93
388,lasa,40.0,CY,55.0,34.92,32.53,66.2,16.11
390,lavrentiya,68.0,RU,100.0,65.58,-170.99,36.22,31.12
391,sarankhola,0.0,BD,49.0,22.31,89.79,90.31,5.73
392,narsipatnam,0.0,IN,61.0,17.67,82.61,89.36,9.42
394,ahipara,64.0,NZ,82.0,-35.17,173.16,61.6,5.17
396,san antonio,0.0,CL,93.0,-33.58,-71.61,46.4,2.59
397,botwood,90.0,CA,100.0,49.14,-55.34,42.8,11.41
398,ubud,24.0,ID,69.0,-8.51,115.26,83.06,2.15
399,avera,90.0,US,93.0,33.19,-82.53,55.4,5.82
400,pyay,12.0,MM,86.0,18.82,95.22,85.99,8.19
401,cayenne,40.0,GF,88.0,4.94,-52.33,77.0,7.4
402,aasiaat,0.0,GL,100.0,68.71,-52.87,26.41,22.84
404,hofn,88.0,IS,100.0,64.25,-15.21,36.89,13.89
406,sao filipe,12.0,CV,100.0,14.9,-24.5,77.8,9.98
407,tevaitoa,100.0,PF,97.0,-16.78,-151.5,81.13,11.21
410,los llanos de aridane,0.0,ES,64.0,28.66,-17.92,68.0,6.93
411,platon sanchez,80.0,MX,97.0,21.28,-98.37,67.72,1.81
412,katsuura,75.0,JP,60.0,33.93,134.5,68.0,8.05
414,yulara,90.0,AU,61.0,-25.24,130.99,78.8,8.05
415,oistins,20.0,BB,88.0,13.07,-59.53,75.2,4.7
416,suleja,20.0,NG,83.0,9.18,7.18,71.6,2.24
417,daru,0.0,SL,94.0,7.99,-10.85,71.99,1.92
418,poieni,0.0,RO,61.0,46.75,27.08,48.2,5.82
419,the pas,90.0,CA,86.0,53.82,-101.24,32.0,8.05
420,shimoda,75.0,JP,64.0,34.7,138.93,69.8,8.05
421,grafton,20.0,AU,66.0,-29.69,152.93,75.68,5.61
422,saint-pierre,90.0,FR,100.0,48.95,4.24,44.6,8.05
423,petropavlovsk-kamchatskiy,75.0,RU,93.0,53.05,158.65,44.6,8.95
425,hobyo,68.0,SO,83.0,5.35,48.53,80.99,3.71
426,krasnoborsk,80.0,RU,95.0,61.56,45.93,31.58,3.83
427,green river,1.0,US,74.0,41.53,-109.47,37.4,12.75
428,tocopilla,36.0,CL,100.0,-22.09,-70.2,55.39,3.6
429,comodoro rivadavia,90.0,AR,93.0,-45.87,-67.48,50.0,13.78
430,dudinka,92.0,RU,96.0,69.41,86.18,25.69,9.64
431,bubaque,32.0,GW,94.0,11.28,-15.83,78.8,3.36
432,quang ngai,80.0,VN,77.0,15.12,108.8,80.68,4.16
433,nikolayevsk-na-amure,0.0,RU,82.0,53.14,140.72,40.36,14.56
434,pevek,56.0,RU,100.0,69.7,170.27,13.0,3.49
435,mama,5.0,MX,78.0,20.48,-89.36,77.0,10.29
436,torbay,90.0,CA,93.0,47.66,-52.73,44.6,8.05
438,prince rupert,75.0,CA,70.0,54.32,-130.32,48.2,6.93
439,porto novo,75.0,BR,94.0,-23.68,-45.44,68.0,2.24
440,harper,1.0,US,93.0,30.3,-99.24,57.2,3.6
441,port blair,92.0,IN,100.0,11.67,92.75,83.83,9.08
442,bhavani,12.0,IN,62.0,11.44,77.68,85.31,5.95
443,mushie,88.0,CD,95.0,-3.02,16.92,75.73,2.71
444,verkhnevilyuysk,48.0,RU,83.0,63.45,120.31,25.46,4.83
445,karratha,0.0,AU,23.0,-20.74,116.85,92.92,16.58
446,bindura,0.0,ZW,60.0,-17.3,31.33,64.84,3.38
447,ulundi,0.0,ZA,35.0,-28.29,31.43,73.75,3.6
448,homer,90.0,US,81.0,59.64,-151.54,44.6,22.06
449,bud,75.0,NO,93.0,62.91,6.91,35.6,5.82
450,mukhtolovo,88.0,RU,97.0,55.47,43.2,35.32,10.76
451,goundi,0.0,TD,75.0,9.36,17.37,78.11,3.04
452,sao domingos,88.0,BR,49.0,-13.4,-46.32,79.96,3.83
453,portland,90.0,US,100.0,45.52,-122.67,57.2,3.71
454,zamora,0.0,ES,93.0,41.51,-5.74,44.6,2.93
455,bagan,0.0,RU,67.0,54.1,77.67,47.74,6.96
457,biltine,0.0,TD,60.0,14.53,20.93,74.69,3.27
458,manzhouli,88.0,CN,66.0,49.6,117.43,33.07,22.73
459,kadoma,8.0,ZW,41.0,-18.34,29.91,68.71,8.08
460,sorland,20.0,NO,100.0,67.67,12.69,32.0,4.7
462,karpogory,88.0,RU,86.0,64.0,44.44,29.47,4.72
463,sitges,0.0,ES,82.0,41.24,1.82,55.4,9.17
464,beitbridge,0.0,ZA,44.0,-22.21,29.99,75.68,4.83
465,bokajan,0.0,IN,68.0,26.02,93.78,81.94,3.04
466,juneau,90.0,US,87.0,58.3,-134.42,44.6,14.99
467,callaway,90.0,US,100.0,46.98,-95.91,50.0,10.29
468,porto nacional,0.0,BR,69.0,-10.7,-48.41,82.4,4.7
469,chumikan,0.0,RU,67.0,54.72,135.31,37.84,6.62
470,aktau,90.0,KZ,82.0,43.65,51.16,59.0,17.9
471,soyo,92.0,AO,96.0,-6.13,12.37,75.86,0.81
472,pescia,75.0,IT,87.0,43.9,10.69,60.8,3.36
473,nalut,0.0,LY,85.0,31.86,10.98,47.96,3.6
474,marabba,8.0,SD,47.0,12.35,32.18,86.8,4.38
475,mount isa,0.0,AU,12.0,-20.73,139.49,105.8,12.75
476,aljezur,92.0,PT,100.0,37.31,-8.8,65.56,5.17
477,poquoson,90.0,US,87.0,37.12,-76.35,46.4,3.6
478,manjacaze,0.0,MZ,70.0,-24.71,33.88,72.76,3.6
479,ploemeur,90.0,FR,93.0,47.73,-3.43,50.0,2.24
480,rorvik,40.0,NO,100.0,64.86,11.24,32.0,4.7
481,umea,90.0,SE,100.0,63.83,20.26,32.0,9.17
482,husavik,80.0,CA,95.0,50.56,-96.99,44.23,8.75
483,cabedelo,40.0,BR,94.0,-6.97,-34.84,75.2,3.36
484,flinders,20.0,AU,55.0,-34.58,150.85,66.2,12.75
485,port hardy,40.0,CA,87.0,50.7,-127.42,50.0,19.46
486,batagay-alyta,68.0,RU,61.0,67.8,130.41,-4.42,2.59
488,soe,80.0,EE,100.0,57.91,26.05,35.6,6.93
489,werda,75.0,DE,87.0,50.44,12.3,48.2,4.7
490,lekoni,48.0,GA,99.0,-1.58,14.26,71.5,3.6
491,maputo,20.0,MZ,83.0,-25.97,32.57,75.2,3.36
492,valparaiso,75.0,US,70.0,41.47,-87.06,46.4,3.36
493,kampene,20.0,CD,74.0,-3.59,26.67,76.04,3.04
494,yar-sale,92.0,RU,94.0,66.83,70.83,37.39,7.63
495,araxa,36.0,BR,92.0,-19.59,-46.94,59.21,2.71
496,nobeoka,0.0,JP,60.0,32.66,131.66,69.43,5.28
497,noyabrsk,88.0,RU,94.0,63.2,75.45,38.2,17.02
498,hokitika,88.0,NZ,100.0,-42.72,170.96,53.54,7.4
499,kenai,90.0,US,66.0,60.55,-151.26,48.2,23.04
500,saint-augustin,90.0,FR,100.0,44.83,-0.61,55.4,3.36
501,tazovskiy,92.0,RU,97.0,67.47,78.7,29.38,16.13
502,wanning,75.0,AT,87.0,48.64,13.53,46.4,2.24
503,petropavlovka,76.0,RU,61.0,50.61,105.32,38.51,3.94
504,ambulu,0.0,ID,85.0,-8.35,113.61,82.21,9.75
505,bay roberts,90.0,CA,93.0,47.58,-53.28,44.6,8.05
506,wajir,75.0,KE,74.0,1.75,40.07,80.6,8.05
507,suba,56.0,CN,88.0,28.73,103.51,61.15,1.92
508,mokhsogollokh,80.0,RU,73.0,61.4,128.95,22.58,4.72
509,port macquarie,40.0,AU,64.0,-31.43,152.91,71.6,14.99
510,panaba,8.0,MX,77.0,21.28,-88.27,76.54,3.49
511,dunedin,88.0,NZ,100.0,-45.87,170.5,46.93,5.73
512,ostersund,75.0,SE,92.0,63.18,14.64,30.2,1.12
514,oktyabrskiy,90.0,RU,89.0,55.61,37.97,32.0,6.71
515,teguldet,0.0,RU,77.0,57.31,88.17,39.41,4.38
516,pangkalanbuun,36.0,ID,79.0,-2.68,111.62,88.87,4.38
517,rio gallegos,90.0,AR,87.0,-51.62,-69.22,46.4,10.29
518,west wendover,1.0,US,66.0,40.74,-114.07,48.2,3.04
519,tougan,56.0,BF,76.0,13.07,-3.07,75.82,2.71
520,san rafael,12.0,AR,86.0,-34.61,-68.33,45.26,2.59
521,owando,92.0,CG,98.0,-0.49,15.91,70.42,2.93
522,mokhotlong,0.0,LS,41.0,-29.29,29.06,57.91,2.15
523,weymouth,90.0,US,51.0,42.22,-70.94,39.2,6.93
524,ixtapa,75.0,MX,100.0,20.71,-105.21,78.8,4.7
525,alice springs,80.0,AU,20.0,-23.7,133.88,102.2,12.75
526,casablanca,75.0,MA,100.0,33.6,-7.62,64.4,3.36
527,cradock,0.0,ZA,23.0,-32.16,25.62,73.88,2.93
528,sikonge,40.0,TZ,64.0,-5.63,32.75,68.0,11.41
529,moose factory,90.0,CA,79.0,51.26,-80.61,28.4,5.82
531,puerto colombia,40.0,CO,88.0,10.99,-74.96,80.6,4.7
532,oga,32.0,NG,96.0,8.18,5.65,74.24,7.63
533,iskateley,88.0,RU,98.0,67.68,53.15,30.41,17.69
534,kidal,0.0,ML,27.0,18.44,1.41,65.38,9.19
535,thinadhoo,92.0,MV,100.0,0.53,72.93,80.18,9.64
537,karakol,0.0,KG,87.0,42.49,78.39,36.49,0.92
538,puerto escondido,20.0,MX,65.0,15.86,-97.07,78.8,5.82
539,darhan,32.0,MN,53.0,49.49,105.92,39.68,4.16
540,imeni poliny osipenko,32.0,RU,70.0,52.42,136.49,41.26,3.38
541,birjand,0.0,IR,18.0,32.86,59.22,69.8,6.93
542,nuuk,64.0,GL,50.0,64.17,-51.74,30.2,3.36
543,altay,0.0,CN,68.0,47.83,88.13,39.55,2.93
544,road town,75.0,VG,83.0,18.42,-64.62,78.8,5.5
545,pa daet,75.0,TH,74.0,19.5,99.99,82.4,4.7
546,kamen-rybolov,92.0,RU,94.0,44.75,132.04,51.61,17.92
547,ust-maya,76.0,RU,65.0,60.42,134.54,19.79,5.84
548,sao jose da coroa grande,64.0,BR,100.0,-8.9,-35.15,72.53,4.16
549,khash,0.0,IR,43.0,28.22,61.21,74.02,4.16
550,pizarro,100.0,CO,100.0,4.95,-77.37,76.63,2.48
551,sumbe,8.0,AO,94.0,-11.2,13.84,77.17,1.36
552,owatonna,1.0,US,70.0,44.08,-93.23,46.4,7.4
553,paka,0.0,HR,87.0,45.29,18.06,48.2,3.6
554,lima,24.0,PE,76.0,-12.06,-77.04,54.22,2.48
555,beloha,0.0,MG,56.0,-25.17,45.06,78.83,14.23
556,namibe,0.0,AO,94.0,-15.19,12.15,76.58,8.41
557,saint-leu,0.0,RE,53.0,-21.15,55.28,78.8,11.41
558,ambilobe,20.0,MG,41.0,-13.19,49.05,83.83,7.96
559,bonavista,92.0,CA,95.0,48.65,-53.11,47.11,13.33
560,margate,0.0,AU,78.0,-43.03,147.26,60.8,18.34
561,arman,90.0,RU,100.0,59.7,150.17,41.0,13.42
562,waterloo,90.0,CA,93.0,43.47,-80.52,39.2,1.59
563,iwanai,48.0,JP,92.0,42.97,140.51,56.65,6.29
564,ziyang,64.0,CN,70.0,30.12,104.65,68.98,3.83
566,atagay,36.0,RU,62.0,55.1,99.39,40.81,8.63
567,parambu,0.0,BR,65.0,-6.21,-40.7,73.16,9.75
568,sept-iles,40.0,CA,66.0,50.2,-66.38,32.0,17.22
569,basco,90.0,US,87.0,40.33,-91.2,48.2,4.72
570,cap malheureux,40.0,MU,65.0,-19.98,57.61,77.0,9.17
572,beringovskiy,0.0,RU,100.0,63.05,179.32,22.99,16.58
574,deniliquin,12.0,AU,44.0,-35.53,144.96,69.74,11.1
575,dinard,90.0,FR,76.0,48.63,-2.06,53.6,12.75
576,tombouctou,0.0,ML,34.0,16.77,-3.01,71.54,10.31
577,visby,20.0,SE,80.0,57.64,18.3,41.0,10.29
578,sibu,75.0,MY,83.0,2.29,111.83,82.4,3.36
579,la ronge,90.0,CA,86.0,55.1,-105.3,33.8,5.82
580,danjiangkou,0.0,CN,43.0,32.54,111.51,64.21,12.77
581,kone,40.0,MM,66.0,21.12,96.11,87.8,3.36
582,bahia honda,8.0,CU,91.0,22.9,-83.16,72.85,1.14
583,otradnoye,75.0,RU,92.0,59.77,30.8,30.2,2.24
584,brokopondo,0.0,SR,94.0,5.06,-54.98,77.0,2.24
585,canyon lake,1.0,US,59.0,33.68,-117.26,68.0,2.71
586,terni,8.0,IT,100.0,42.56,12.64,57.2,2.24
587,willowmore,12.0,ZA,34.0,-33.3,23.49,72.76,2.93
588,kimbe,100.0,PG,100.0,-5.56,150.15,76.45,0.58
589,chase,40.0,US,100.0,43.89,-85.64,41.0,2.37
590,mokrous,76.0,RU,99.0,51.24,47.51,41.98,13.0
591,baiao,0.0,BR,90.0,-2.79,-49.67,77.71,4.16
592,baker city,90.0,US,57.0,44.77,-117.83,57.2,3.36
593,fort myers beach,1.0,US,88.0,26.45,-81.95,77.0,7.07
594,camocim,0.0,BR,87.0,-2.9,-40.84,76.13,14.67
595,buldana,0.0,IN,39.0,20.53,76.18,89.86,5.73
596,klyuchi,0.0,RU,56.0,52.25,79.17,46.03,7.96
597,ibotirama,0.0,BR,62.0,-12.18,-43.22,72.71,5.28
598,sao domingos do maranhao,92.0,BR,62.0,-5.58,-44.39,81.76,1.59
599,torbat-e jam,0.0,IR,33.0,35.24,60.63,73.43,3.94
600,hasaki,75.0,JP,52.0,35.73,140.83,69.8,8.05
601,amga,76.0,RU,69.0,60.89,131.98,21.23,4.61
602,lydenburg,0.0,ZA,52.0,-25.1,30.46,64.93,1.7
603,sosnovo-ozerskoye,0.0,RU,57.0,52.53,111.54,28.75,8.41
604,iquitos,0.0,PE,94.0,-3.75,-73.25,75.2,3.36
605,aklavik,75.0,CA,92.0,68.22,-135.01,17.6,3.36
606,farmington,1.0,US,57.0,36.73,-108.21,48.2,4.7
607,nome,1.0,US,93.0,30.04,-94.42,60.8,5.82
608,manokwari,24.0,ID,96.0,-0.87,134.08,84.82,9.86
609,shelburne,90.0,CA,93.0,44.08,-80.2,41.0,2.37
610,mwanza,20.0,TZ,82.0,-2.52,32.9,64.4,11.65
611,terekli-mekteb,92.0,RU,69.0,44.16,45.87,51.97,12.77
