,city,Cloudiness,Country,Date,Humidity,Latitude,Longitude,Max Temperature,Wind Speed
0,tamiahua,92.0,MX,1540653539.0,100.0,21.28,-97.45,71.27,18.75
1,salalah,20.0,OM,1540648200.0,78.0,17.01,54.1,80.6,4.7
2,tasiilaq,92.0,GL,1540651800.0,100.0,65.61,-37.64,30.2,49.44
3,ushuaia,75.0,AR,1540648800.0,76.0,-54.81,-68.31,48.2,20.8
4,mujiayingzi,36.0,CN,1540653539.0,43.0,42.12,118.78,38.24,10.36
5,rikitea,48.0,PF,1540653540.0,100.0,-23.12,-134.97,72.84,12.82
6,sao filipe,20.0,CV,1540653540.0,93.0,14.9,-24.5,80.22,13.27
7,poum,0.0,MK,1540653540.0,44.0,41.28,20.71,62.36,2.42
8,zhuhai,0.0,CN,1540648800.0,38.0,40.71,112.04,42.8,8.95
9,upernavik,92.0,GL,1540653541.0,100.0,72.79,-56.15,21.9,17.52
10,bredasdorp,20.0,ZA,1540648800.0,60.0,-34.53,20.04,75.2,19.46
11,maningrida,20.0,AU,1540653541.0,75.0,-12.05,134.23,81.39,10.69
12,nikolskoye,75.0,RU,1540650600.0,80.0,59.7,30.79,35.6,20.13
13,lebu,0.0,ET,1540653542.0,34.0,8.96,38.73,66.27,10.69
14,port hardy,20.0,CA,1540652400.0,93.0,50.7,-127.42,44.6,5.82
15,mataura,88.0,NZ,1540653542.0,100.0,-46.19,168.86,42.51,3.2
16,bud,40.0,NO,1540651800.0,86.0,62.91,6.91,37.4,6.67
17,barrow,20.0,AR,1540653546.0,77.0,-38.31,-60.23,70.59,10.25
18,victoria,90.0,BN,1540652400.0,88.0,5.28,115.24,80.6,3.76
19,komsomolskiy,92.0,RU,1540653546.0,92.0,67.55,63.78,25.91,18.52
20,provideniya,0.0,RU,1540653495.0,100.0,64.42,-173.23,25.37,14.05
21,praia,75.0,BR,1540648800.0,69.0,-20.25,-43.81,80.6,8.05
22,okmulgee,1.0,US,1540652100.0,77.0,35.62,-95.96,62.6,5.32
23,port alfred,56.0,ZA,1540653547.0,79.0,-33.59,26.89,72.57,14.72
24,norman wells,90.0,CA,1540652400.0,100.0,65.28,-126.83,23.0,4.7
25,caraballeda,0.0,VE,1540653548.0,92.0,10.61,-66.85,84.09,9.46
26,cabedelo,40.0,BR,1540648800.0,51.0,-6.97,-34.84,86.0,13.87
27,luanda,20.0,AO,1540652400.0,66.0,-8.83,13.24,86.0,13.87
28,svetlyy,,,,,,,,
29,jamestown,92.0,AU,1540653409.0,68.0,-33.21,138.6,56.55,2.75
30,barentsburg,,,,,,,,
31,dunedin,92.0,NZ,1540653549.0,100.0,-45.87,170.5,44.49,2.42
32,longyearbyen,75.0,NO,1540651800.0,72.0,78.22,15.63,17.6,9.17
33,balykshi,,,,,,,,
34,corinto,8.0,BR,1540653550.0,88.0,-18.36,-44.46,85.98,6.33
35,pacific grove,40.0,US,1540652100.0,81.0,36.62,-121.92,51.8,3.2
36,saldanha,44.0,PT,1540653550.0,58.0,41.42,-6.55,50.39,14.05
37,cape town,0.0,ZA,1540648800.0,38.0,-33.93,18.42,89.6,8.05
38,mar del plata,0.0,AR,1540653551.0,46.0,-46.43,-67.52,65.51,14.05
39,dawei,0.0,MM,1540653551.0,80.0,14.07,98.19,76.89,2.3
40,aklavik,90.0,CA,1540652400.0,92.0,68.22,-135.01,24.8,9.17
41,kungurtug,0.0,RU,1540653551.0,70.0,50.6,97.53,8.67,3.2
42,hasaki,20.0,JP,1540650600.0,87.0,35.73,140.83,60.8,6.93
43,kununurra,92.0,AU,1540652400.0,51.0,-15.77,128.74,84.2,5.82
44,qaanaaq,0.0,GL,1540653552.0,100.0,77.48,-69.36,-5.91,10.02
45,castro,80.0,CL,1540653553.0,94.0,-42.48,-73.76,55.07,3.65
46,ponta do sol,56.0,BR,1540653553.0,100.0,-20.63,-46.0,74.82,7.78
47,ambon,75.0,FR,1540652400.0,66.0,47.55,-2.56,50.0,9.17
48,coos bay,40.0,US,1540652160.0,93.0,43.37,-124.22,55.4,8.05
49,saint george,0.0,GR,1540651800.0,64.0,39.45,22.34,69.8,9.17
50,fortuna,20.0,ES,1540652400.0,49.0,38.18,-1.13,73.4,2.24
51,vao,92.0,EE,1540653554.0,97.0,59.1,26.19,35.81,15.61
52,taolanaro,,,,,,,,
53,hirara,0.0,JP,1540653554.0,100.0,24.8,125.28,74.55,27.25
54,sentyabrskiy,,,,,,,,
55,hermanus,0.0,ZA,1540653555.0,28.0,-34.42,19.24,93.09,3.42
56,tuktoyaktuk,90.0,CA,1540652400.0,92.0,69.44,-133.03,26.6,8.05
57,malakal,,,,,,,,
58,saskylakh,36.0,RU,1540653556.0,81.0,71.97,114.09,11.87,18.19
59,atikokan,92.0,CA,1540653557.0,100.0,48.76,-91.62,42.24,7.0
60,albany,90.0,US,1540652040.0,86.0,42.65,-73.75,39.2,8.05
61,busselton,0.0,AU,1540653557.0,100.0,-33.64,115.35,61.46,16.84
62,lorengau,24.0,PG,1540653551.0,100.0,-2.02,147.27,81.93,3.42
63,westport,40.0,IE,1540652400.0,86.0,53.8,-9.52,39.2,13.87
64,black river,20.0,JM,1540648800.0,66.0,18.03,-77.85,86.0,11.41
65,hilo,75.0,US,1540649460.0,88.0,19.71,-155.08,71.6,13.04
66,pombas,8.0,BR,1540653558.0,75.0,-15.9,-54.74,90.48,5.1
67,omboue,76.0,GA,1540653558.0,100.0,-1.57,9.26,79.01,7.23
68,hualmay,12.0,PE,1540653559.0,72.0,-11.1,-77.61,67.44,3.76
69,east london,20.0,ZA,1540648800.0,73.0,-33.02,27.91,71.6,18.34
70,dikson,92.0,RU,1540653559.0,100.0,73.51,80.55,24.02,35.75
71,port elizabeth,90.0,US,1540652400.0,100.0,39.31,-74.98,60.8,13.87
72,prince rupert,75.0,CA,1540652400.0,87.0,54.32,-130.32,44.6,4.7
73,belushya guba,,,,,,,,
74,mao,20.0,DO,1540648800.0,83.0,19.55,-71.08,86.0,5.82
75,bluff,0.0,AU,1540653560.0,52.0,-23.58,149.07,73.07,8.79
76,forio,40.0,IT,1540652100.0,68.0,40.73,13.86,73.4,16.11
77,cabo san lucas,5.0,MX,1540647660.0,72.0,22.89,-109.91,66.2,5.82
78,kindu,24.0,CD,1540653561.0,82.0,-2.95,25.92,81.21,2.75
79,manta,8.0,RO,1540653561.0,63.0,45.1,24.1,60.6,2.64
80,samusu,,,,,,,,
81,togur,32.0,RU,1540653430.0,58.0,58.36,82.83,45.93,13.71
82,grand river south east,,,,,,,,
83,tiznit,92.0,MA,1540653562.0,100.0,29.7,-9.73,64.11,3.98
84,bambous virieux,40.0,MU,1540648800.0,64.0,-20.34,57.76,75.2,6.93
85,azanka,44.0,RU,1540653562.0,62.0,58.04,64.79,38.91,8.01
86,port said,0.0,EG,1540653562.0,17.0,25.34,30.55,80.94,8.57
87,keti bandar,0.0,PK,1540653563.0,94.0,24.14,67.45,83.24,7.56
88,chuy,24.0,UY,1540653563.0,92.0,-33.69,-53.46,66.32,18.75
89,waingapu,24.0,ID,1540653563.0,93.0,-9.65,120.26,72.57,2.75
90,mys shmidta,,,,,,,,
91,puerto ayora,40.0,EC,1540648800.0,69.0,-0.74,-90.35,75.2,13.87
92,ostrovnoy,88.0,RU,1540653564.0,84.0,68.05,39.51,29.46,12.15
93,yenagoa,8.0,NG,1540653564.0,100.0,4.92,6.26,82.2,4.21
94,antofagasta,90.0,CL,1540648800.0,67.0,-23.65,-70.4,62.6,5.82
95,zhanaozen,0.0,KZ,1540653565.0,52.0,43.35,52.85,51.69,16.73
96,shieli,64.0,KZ,1540653565.0,37.0,44.18,66.74,69.69,10.25
97,port hedland,0.0,AU,1540652400.0,78.0,-20.31,118.58,73.4,4.7
98,punta arenas,75.0,CL,1540648800.0,81.0,-53.16,-70.91,48.2,23.04
99,pedernales,20.0,EC,1540653566.0,83.0,0.07,-80.05,76.89,5.32
100,vaini,0.0,IN,1540653566.0,33.0,15.34,74.49,78.56,6.33
101,anahuac,1.0,US,1540652100.0,77.0,29.77,-94.68,71.6,4.21
102,attawapiskat,,,,,,,,
103,laguna,5.0,MX,1540647600.0,82.0,27.52,-110.01,64.4,2.3
104,beringovskiy,92.0,RU,1540653567.0,100.0,63.05,179.32,20.55,5.99
105,illoqqortoormiut,,,,,,,,
106,ayan,0.0,TR,1540653567.0,75.0,40.67,33.6,40.44,2.3
107,yeppoon,90.0,AU,1540652400.0,88.0,-23.13,150.74,73.4,5.82
108,wonthaggi,0.0,AU,1540653568.0,85.0,-38.6,145.59,44.76,3.53
109,vryburg,0.0,ZA,1540653568.0,16.0,-26.96,24.73,90.12,4.76
110,codrington,0.0,AU,1540653568.0,93.0,-28.95,153.24,59.34,2.98
111,grand centre,,,,,,,,
112,chokurdakh,88.0,RU,1540653568.0,85.0,70.62,147.9,7.37,2.98
113,leshukonskoye,92.0,RU,1540653569.0,83.0,64.9,45.76,32.97,7.9
114,imbituba,40.0,BR,1540648800.0,78.0,-28.24,-48.67,78.8,5.82
115,thompson,90.0,CA,1540652400.0,92.0,55.74,-97.86,30.2,4.7
116,bethel,1.0,US,1540651980.0,86.0,60.79,-161.76,28.4,19.46
117,rio grande,75.0,BR,1540648800.0,60.0,-32.03,-52.1,71.6,18.34
118,luang prabang,0.0,LA,1540653570.0,94.0,19.89,102.14,69.6,1.41
119,bintulu,75.0,MY,1540652400.0,100.0,3.17,113.03,77.0,3.36
120,hobart,40.0,AU,1540652400.0,64.0,-42.88,147.33,42.8,10.29
121,lephepe,,,,,,,,
122,ilulissat,75.0,GL,1540651800.0,44.0,69.22,-51.1,37.4,18.34
123,lebedinyy,48.0,RU,1540653571.0,80.0,58.52,125.52,14.12,4.99
124,dingle,24.0,PH,1540653571.0,86.0,11.0,122.67,76.94,8.12
125,sile,1.0,US,1540651980.0,65.0,35.56,-106.37,50.0,4.7
126,port blair,8.0,IN,1540653572.0,100.0,11.67,92.75,84.36,11.48
127,ancud,92.0,CL,1540653512.0,95.0,-41.87,-73.83,54.84,4.99
128,aksarka,44.0,RU,1540653319.0,89.0,66.56,67.8,30.99,25.9
129,berlevag,88.0,NO,1540653572.0,100.0,70.86,29.09,32.34,15.84
130,shanhetun,64.0,CN,1540653572.0,73.0,44.7,127.2,30.99,10.02
131,tancanhuitz,,,,,,,,
132,kapaa,90.0,US,1540650060.0,88.0,22.08,-159.32,75.2,11.41
133,sur,56.0,OM,1540653573.0,88.0,22.57,59.53,83.96,14.5
134,cam ranh,92.0,VN,1540653573.0,96.0,11.92,109.15,79.05,15.28
135,nzerekore,20.0,GN,1540653573.0,91.0,7.76,-8.82,81.21,3.42
136,juneau,90.0,US,1540652160.0,93.0,58.3,-134.42,44.6,14.99
137,airai,0.0,TL,1540653574.0,86.0,-8.93,125.41,65.46,1.19
138,khandyga,12.0,RU,1540653499.0,93.0,62.65,135.58,7.01,4.76
139,belfast,0.0,GB,1540651800.0,56.0,54.6,-5.93,44.6,16.11
140,san carlos de bariloche,40.0,AR,1540648800.0,54.0,-41.13,-71.31,57.2,21.92
141,saint anthony,1.0,US,1540652160.0,50.0,43.97,-111.68,51.8,10.29
142,tsihombe,,,,,,,,
143,ruatoria,,,,,,,,
144,georgetown,75.0,GY,1540648800.0,62.0,6.8,-58.16,89.6,11.41
145,nioro,20.0,GM,1540653576.0,70.0,13.79,-15.05,91.79,6.55
146,khonuu,,,,,,,,
147,touros,0.0,BR,1540653577.0,61.0,-5.2,-35.46,86.84,14.72
148,butaritari,24.0,KI,1540653577.0,100.0,3.07,172.79,85.49,11.59
149,tiksi,0.0,RU,1540653577.0,77.0,71.64,128.87,9.12,13.49
150,tasbuget,,,,,,,,
151,poddorye,92.0,RU,1540653578.0,100.0,57.47,31.12,37.2,15.73
152,pevek,0.0,RU,1540653578.0,100.0,69.7,170.27,3.41,5.66
153,cairns,0.0,AU,1540652400.0,88.0,-16.92,145.77,68.0,4.7
154,new norfolk,40.0,AU,1540652400.0,76.0,-42.78,147.06,42.8,10.29
155,aykhal,80.0,RU,1540653578.0,87.0,65.95,111.51,18.93,13.27
156,sao borja,0.0,BR,1540653582.0,77.0,-28.66,-56.0,73.02,13.38
157,tilichiki,92.0,RU,1540653582.0,96.0,60.47,166.1,36.93,5.21
158,mahebourg,40.0,MU,1540648800.0,64.0,-20.41,57.7,75.2,6.93
159,pechenga,0.0,RU,1540653583.0,85.0,58.89,41.46,27.48,7.23
160,vredendal,0.0,ZA,1540653583.0,15.0,-31.68,18.49,100.11,8.57
161,saint-philippe,90.0,CA,1540652400.0,59.0,45.36,-73.48,41.0,12.75
162,jiaohe,88.0,CN,1540653584.0,76.0,43.72,127.34,31.89,7.78
163,huilong,32.0,CN,1540653584.0,74.0,28.89,110.18,50.97,1.86
164,naze,75.0,NG,1540652400.0,55.0,5.43,7.07,91.4,6.93
165,sungaipenuh,32.0,ID,1540653584.0,97.0,-2.08,101.38,66.9,0.96
166,saleaula,,,,,,,,
167,umzimvubu,,,,,,,,
168,souillac,0.0,FR,1540652400.0,50.0,45.6,-0.6,51.8,11.41
169,khatanga,92.0,RU,1540653585.0,85.0,71.98,102.47,22.62,18.75
170,mandalgovi,0.0,MN,1540653585.0,65.0,45.76,106.27,30.0,11.25
171,uvat,80.0,RU,1540653586.0,78.0,59.14,68.9,41.43,7.67
172,atuona,36.0,PF,1540653586.0,99.0,-9.8,-139.03,80.49,16.4
173,okhotsk,48.0,RU,1540653479.0,100.0,59.36,143.24,24.69,3.53
174,kodinsk,0.0,RU,1540653586.0,69.0,58.6,99.18,35.99,6.11
175,basco,90.0,US,1540653300.0,81.0,40.33,-91.2,51.8,4.43
176,paducah,90.0,US,1540652100.0,81.0,37.08,-88.6,51.8,6.93
177,sozimskiy,92.0,RU,1540653587.0,78.0,59.74,52.25,34.32,11.7
178,point pedro,92.0,LK,1540653587.0,99.0,9.82,80.23,82.29,13.27
179,hobyo,12.0,SO,1540653587.0,81.0,5.35,48.53,80.85,3.76
180,labuan,90.0,BN,1540652400.0,88.0,5.28,115.24,80.6,3.76
181,teguldet,0.0,RU,1540653588.0,63.0,57.31,88.17,40.22,7.45
182,lolua,,,,,,,,
183,nicoya,40.0,CR,1540648800.0,88.0,10.15,-85.45,78.8,3.36
184,kodiak,1.0,US,1540648380.0,100.0,39.95,-94.76,44.6,3.36
185,los llanos de aridane,75.0,ES,1540652400.0,78.0,28.66,-17.92,71.6,8.05
186,severo-kurilsk,20.0,RU,1540653589.0,100.0,50.68,156.12,36.3,3.09
187,mollendo,32.0,PE,1540653589.0,75.0,-17.03,-72.02,68.61,4.09
188,avarua,90.0,CK,1540652400.0,88.0,-21.21,-159.78,73.4,5.82
189,hami,0.0,CN,1540653480.0,66.0,42.84,93.51,36.26,4.43
190,nanortalik,76.0,GL,1540653505.0,90.0,60.14,-45.24,37.29,15.28
191,scottsbluff,1.0,US,1540651980.0,66.0,41.87,-103.67,50.0,14.5
192,iqaluit,90.0,CA,1540652400.0,85.0,63.75,-68.52,23.0,23.04
193,sheboygan,90.0,US,1540652160.0,81.0,43.75,-87.71,48.2,7.0
194,lata,0.0,IN,1540653590.0,82.0,30.78,78.62,42.51,2.64
195,bemidji,75.0,US,1540651740.0,100.0,47.48,-94.89,44.6,5.82
196,kushima,0.0,JP,1540653591.0,100.0,31.5,131.29,54.39,6.67
197,esperance,40.0,TT,1540648800.0,58.0,10.24,-61.45,87.8,13.87
198,sugar land,1.0,US,1540652100.0,82.0,29.62,-95.64,68.0,5.82
199,rocha,68.0,UY,1540653591.0,89.0,-34.48,-54.34,65.46,11.25
200,bafia,24.0,CM,1540653592.0,56.0,4.74,11.22,87.47,3.42
201,karpogory,92.0,RU,1540653592.0,81.0,64.0,44.44,32.88,7.45
202,portland,75.0,US,1540652160.0,93.0,45.52,-122.67,55.4,2.19
203,eidsvag,40.0,NO,1540651800.0,86.0,62.78,8.07,37.4,3.98
204,agirish,12.0,RU,1540653592.0,61.0,61.92,63.02,33.51,8.79
205,acari,0.0,BR,1540653593.0,37.0,-6.44,-36.64,91.56,10.58
206,lagoa,0.0,PT,1540652400.0,37.0,37.14,-8.45,69.8,18.34
207,ilebo,20.0,CD,1540653593.0,45.0,-4.33,20.59,90.71,1.41
208,pisco,90.0,PE,1540648800.0,82.0,-13.71,-76.2,64.4,4.7
209,qasigiannguit,75.0,GL,1540651800.0,44.0,68.82,-51.19,37.4,18.34
210,yellowknife,75.0,CA,1540652400.0,100.0,62.45,-114.38,28.4,5.82
211,qaqortoq,75.0,GL,1540651800.0,88.0,60.72,-46.03,39.2,3.36
212,palabuhanratu,,,,,,,,
213,sedelnikovo,,,,,,,,
214,almaznyy,0.0,RU,1540653595.0,88.0,48.03,40.04,41.84,6.22
215,kasongo-lunda,24.0,CD,1540653595.0,79.0,-6.48,16.82,81.21,2.98
216,alta floresta,20.0,BR,1540648800.0,70.0,-9.87,-56.08,87.8,4.7
217,olafsvik,,,,,,,,
218,cotonou,20.0,BJ,1540652400.0,62.0,6.37,2.43,87.8,8.05
219,constitucion,5.0,MX,1540651740.0,76.0,23.99,-104.67,55.4,5.82
220,bara,12.0,NG,1540653596.0,36.0,10.41,10.6,95.79,4.21
221,temiscaming,90.0,CA,1540652400.0,83.0,46.72,-79.1,32.0,16.11
222,san patricio,0.0,PY,1540653597.0,73.0,-26.98,-56.83,72.62,7.45
223,erenhot,0.0,CN,1540653597.0,51.0,43.65,111.97,35.99,19.75
224,nanakuli,40.0,US,1540652220.0,94.0,21.39,-158.15,78.8,4.7
225,agadez,40.0,NE,1540652400.0,29.0,16.97,7.99,98.6,11.41
226,sisimiut,56.0,GL,1540653549.0,100.0,66.94,-53.67,29.91,1.74
227,carnarvon,0.0,ZA,1540653598.0,7.0,-30.97,22.13,92.91,4.43
228,tambul,,,,,,,,
229,gondanglegi,44.0,ID,1540653598.0,89.0,-7.75,112.01,73.65,6.44
230,muroto,0.0,JP,1540653598.0,100.0,33.37,134.14,53.76,7.0
231,amderma,,,,,,,,
232,cuiluan,56.0,CN,1540653599.0,77.0,47.72,128.65,28.11,6.89
233,wilmington,90.0,US,1540652100.0,87.0,39.75,-75.55,57.2,21.92
234,wulanhaote,,,,,,,,
235,zharkent,12.0,KZ,1540653599.0,61.0,44.17,80.0,22.98,2.42
236,alice springs,75.0,AU,1540652400.0,82.0,-23.7,133.88,68.0,1.12
237,beni mazar,0.0,EG,1540653600.0,33.0,28.5,30.8,75.81,8.9
238,hithadhoo,88.0,MV,1540653600.0,100.0,-0.6,73.08,81.93,14.61
239,tuatapere,92.0,NZ,1540653600.0,100.0,-46.13,167.69,45.84,3.53
240,tongren,20.0,CN,1540653600.0,63.0,27.72,109.18,52.77,3.42
241,morena,0.0,IN,1540653601.0,60.0,26.49,77.98,68.57,2.53
242,tumannyy,,,,,,,,
243,puerto colombia,40.0,CO,1540648800.0,83.0,10.99,-74.96,84.2,8.05
244,pontianak,48.0,ID,1540653601.0,90.0,-0.02,109.34,80.4,4.76
245,winneba,20.0,GH,1540652400.0,74.0,5.35,-0.62,86.0,12.75
246,the pas,90.0,CA,1540653120.0,100.0,53.82,-101.24,32.0,5.82
247,calvinia,0.0,ZA,1540653602.0,7.0,-31.47,19.78,97.68,5.99
248,kalemie,0.0,CD,1540653603.0,79.0,-5.95,29.2,81.93,2.19
249,kavaratti,0.0,IN,1540653672.0,99.0,10.57,72.64,86.25,7.11
250,arraial do cabo,40.0,BR,1540648800.0,74.0,-22.97,-42.02,86.0,9.17
251,toliary,,,,,,,,
252,cidreira,88.0,BR,1540653604.0,95.0,-30.17,-50.22,65.64,26.57
253,caravelas,64.0,BR,1540653605.0,97.0,-17.73,-39.27,78.92,27.81
254,kozluk,0.0,TR,1540651800.0,58.0,38.17,41.5,59.0,1.12
255,tanete,8.0,ID,1540653605.0,88.0,-3.94,119.78,74.87,3.42
256,campina verde,64.0,BR,1540653605.0,69.0,-19.54,-49.49,83.91,12.82
257,nakamura,0.0,JP,1540650600.0,63.0,35.17,136.87,62.6,16.11
258,massaguet,0.0,TD,1540648800.0,27.0,12.48,15.44,98.6,4.7
259,susurluk,0.0,TR,1540651800.0,30.0,39.91,28.16,69.8,4.7
260,grindavik,0.0,IS,1540650600.0,80.0,63.84,-22.43,37.4,19.46
261,coihaique,75.0,CL,1540648800.0,67.0,-45.58,-72.07,57.2,5.82
262,boca do acre,20.0,BR,1540653607.0,75.0,-8.76,-67.39,87.24,3.31
263,sinnamary,68.0,GF,1540653607.0,94.0,5.38,-52.96,82.2,5.99
264,kahului,1.0,US,1540652160.0,83.0,20.89,-156.47,77.0,11.41
265,the valley,40.0,AI,1540648800.0,74.0,18.22,-63.06,86.0,6.93
266,artyom,12.0,RU,1540650600.0,80.0,43.36,132.19,30.2,2.24
267,barcelos,20.0,PT,1540652400.0,54.0,41.53,-8.62,59.0,19.46
268,havelock,90.0,US,1540652040.0,93.0,34.88,-76.9,55.4,16.11
269,nara,0.0,JP,1540650600.0,51.0,34.68,135.8,62.6,13.87
270,leningradskiy,0.0,RU,1540653609.0,100.0,69.38,178.42,15.96,3.98
271,kaduy,0.0,RU,1540653609.0,86.0,59.2,37.15,25.37,2.86
272,paijan,90.0,PE,1540648800.0,82.0,-7.73,-79.3,64.4,5.82
273,oranjemund,12.0,ZA,1540653610.0,87.0,-28.55,16.43,65.19,14.05
274,seddon,0.0,NZ,1540653610.0,100.0,-41.67,174.07,43.41,3.76
275,flin flon,90.0,CA,1540652400.0,100.0,54.77,-101.88,30.2,5.82
276,kieta,88.0,PG,1540653610.0,99.0,-6.22,155.63,79.01,2.98
277,ginir,12.0,ET,1540653611.0,84.0,7.14,40.71,65.28,2.64
278,srednekolymsk,88.0,RU,1540653528.0,85.0,67.46,153.71,9.26,5.77
279,cap malheureux,40.0,MU,1540648800.0,64.0,-19.98,57.61,75.2,6.93
280,isangel,0.0,VU,1540653325.0,100.0,-19.55,169.27,74.69,3.2
281,half moon bay,90.0,US,1540653060.0,100.0,37.46,-122.43,55.4,6.78
282,kupino,64.0,RU,1540653612.0,65.0,54.36,77.31,50.34,17.52
283,mehamn,80.0,NO,1540653612.0,80.0,71.03,27.85,31.04,13.27
284,sioux lookout,90.0,CA,1540652400.0,93.0,50.1,-91.92,41.0,8.05
285,segarcea vale,0.0,RO,1540653612.0,44.0,43.82,24.8,70.64,5.99
286,rawlins,1.0,US,1540652100.0,49.0,41.79,-107.24,50.0,20.8
287,dongzhen,56.0,CN,1540653613.0,58.0,43.33,129.73,31.98,7.45
288,magburaka,0.0,SL,1540653613.0,84.0,8.72,-11.95,86.97,4.43
289,pitea,0.0,SE,1540651800.0,80.0,65.32,21.48,30.2,6.93
290,nova vodolaha,90.0,UA,1540650600.0,93.0,49.72,35.86,46.4,8.95
291,karaul,,,,,,,,
292,koslan,92.0,RU,1540653479.0,87.0,63.46,48.9,32.34,7.23
293,bathsheba,40.0,BB,1540648800.0,70.0,13.22,-59.52,84.2,12.75
294,ocampo,92.0,PH,1540653614.0,90.0,13.56,123.37,79.77,14.05
295,najran,0.0,SA,1540648800.0,20.0,17.54,44.22,87.8,11.41
296,bilibino,80.0,RU,1540653615.0,66.0,68.06,166.44,-5.28,2.42
297,namibe,0.0,AO,1540653615.0,84.0,-15.19,12.15,79.86,15.84
298,sitka,0.0,US,1540653615.0,50.0,37.17,-99.65,53.67,5.44
299,yavas,88.0,RU,1540653615.0,83.0,54.42,42.84,37.56,5.99
300,hambantota,48.0,LK,1540653616.0,100.0,6.12,81.12,79.32,6.22
301,montepuez,0.0,MZ,1540653616.0,26.0,-13.13,39.0,87.47,6.44
302,leninogorsk,12.0,RU,1540653616.0,86.0,54.6,52.45,31.35,7.45
303,pimentel,0.0,BR,1540653616.0,57.0,-3.7,-45.5,91.38,5.66
304,faya,40.0,SA,1540648800.0,77.0,18.39,42.45,69.8,5.82
305,te anau,80.0,NZ,1540653617.0,100.0,-45.41,167.72,39.45,2.19
306,bolonchen,,,,,,,,
307,katsuura,32.0,JP,1540653538.0,95.0,33.93,134.5,55.52,8.46
308,camana,,,,,,,,
309,torrijos,40.0,ES,1540652400.0,75.0,39.98,-4.28,46.4,11.41
310,havre-saint-pierre,20.0,CA,1540652400.0,49.0,50.23,-63.6,26.6,12.75
311,nizhneyansk,,,,,,,,
312,trincomalee,80.0,LK,1540653618.0,99.0,8.58,81.23,75.18,4.21
313,ribeira grande,40.0,PT,1540652400.0,60.0,38.52,-28.7,71.6,21.92
314,kaitangata,80.0,NZ,1540653619.0,99.0,-46.28,169.85,45.57,2.64
315,araouane,24.0,ML,1540653619.0,19.0,18.9,-3.53,91.61,4.99
316,paamiut,92.0,GL,1540653619.0,100.0,61.99,-49.67,37.38,35.86
317,alyangula,0.0,AU,1540653505.0,100.0,-13.85,136.42,81.03,9.8
318,praia da vitoria,75.0,PT,1540652400.0,68.0,38.73,-27.07,66.2,21.77
319,grand gaube,40.0,MU,1540648800.0,64.0,-20.01,57.66,75.2,6.93
320,kondoa,44.0,TZ,1540653620.0,57.0,-4.91,35.78,74.42,10.8
321,jiamusi,48.0,CN,1540653620.0,75.0,46.81,130.37,32.16,15.39
322,shache,0.0,CN,1540653620.0,45.0,38.42,77.24,43.32,5.77
323,paraiso,5.0,MX,1540651740.0,76.0,24.01,-104.61,55.4,5.82
324,kavieng,44.0,PG,1540653621.0,100.0,-2.57,150.8,81.17,3.87
325,banda aceh,24.0,ID,1540653621.0,100.0,5.56,95.32,75.09,2.75
326,kamaishi,0.0,JP,1540653621.0,90.0,39.28,141.86,52.95,7.11
327,kargasok,68.0,RU,1540653621.0,56.0,59.06,80.87,51.6,9.8
328,mount gambier,12.0,AU,1540653493.0,92.0,-37.83,140.78,45.44,3.2
329,klyuchi,0.0,RU,1540653622.0,50.0,52.25,79.17,47.87,14.05
330,troitsko-pechorsk,88.0,RU,1540653622.0,84.0,62.71,56.19,33.06,5.1
331,marcona,,,,,,,,
332,aflu,,,,,,,,
333,ballina,40.0,IE,1540652400.0,86.0,54.11,-9.15,39.2,13.87
334,sapa,75.0,PH,1540648800.0,69.0,14.32,120.76,82.4,2.24
335,kamenka,44.0,RU,1540653623.0,85.0,53.19,44.05,35.31,8.23
336,vostok,88.0,RU,1540653623.0,81.0,46.45,135.83,28.11,7.23
337,kruisfontein,0.0,ZA,1540653623.0,75.0,-34.0,24.73,70.68,17.74
338,goderich,92.0,CA,1540653502.0,100.0,43.74,-81.71,41.57,16.96
339,gillette,75.0,US,1540651980.0,47.0,44.29,-105.5,55.4,18.34
340,qrendi,20.0,MT,1540651500.0,60.0,35.83,14.46,73.4,14.99
341,margate,40.0,AU,1540652400.0,92.0,-43.03,147.26,42.8,10.29
342,nysa,92.0,PL,1540653624.0,84.0,50.47,17.33,47.55,4.65
343,auki,12.0,NG,1540653624.0,52.0,12.18,6.51,91.38,5.21
344,tapiramuta,0.0,BR,1540653625.0,38.0,-11.85,-40.79,94.71,6.78
345,mahon,20.0,IE,1540652400.0,48.0,51.89,-8.4,44.6,21.92
346,damietta,20.0,EG,1540648800.0,50.0,31.42,31.81,75.2,3.36
347,bengkulu,,,,,,,,
348,narsaq,75.0,GL,1540651800.0,98.0,60.91,-46.05,39.2,3.36
349,roald,90.0,NO,1540651800.0,100.0,62.58,6.12,37.4,8.05
350,faanui,92.0,PF,1540653354.0,100.0,-16.48,-151.75,77.16,8.46
351,bunbury,40.0,GB,1540651800.0,56.0,53.12,-2.65,44.6,14.99
352,taoudenni,0.0,ML,1540653626.0,21.0,22.68,-3.98,89.67,5.21
353,jalu,32.0,LY,1540653522.0,26.0,29.03,21.55,84.81,6.67
354,namatanai,36.0,PG,1540653627.0,100.0,-3.66,152.44,80.54,6.89
355,fairbanks,90.0,US,1540652280.0,100.0,64.84,-147.72,30.2,2.98
356,bonoua,40.0,CI,1540652400.0,70.0,5.27,-3.6,86.0,11.41
357,zhezkazgan,68.0,KZ,1540653627.0,44.0,47.8,67.71,56.37,10.47
358,san cristobal,40.0,EC,1540648800.0,72.0,-0.39,-78.55,59.0,13.87
359,ust-kamchatsk,,,,,,,,
360,u thong,48.0,TH,1540653628.0,83.0,14.38,99.89,76.89,2.64
361,dunmore town,44.0,BS,1540653628.0,100.0,25.5,-76.65,81.71,12.26
362,talnakh,92.0,RU,1540653628.0,91.0,69.49,88.39,36.75,21.77
363,oistins,40.0,BB,1540648800.0,70.0,13.07,-59.53,84.2,12.75
364,punta alta,75.0,AR,1540648800.0,72.0,-27.46,-55.82,69.8,9.17
365,buarcos,20.0,PT,1540652400.0,54.0,40.16,-8.88,59.0,24.16
366,inderborskiy,,,,,,,,
367,maymyo,75.0,MM,1540650600.0,83.0,22.03,96.47,78.8,2.98
368,sosnovo-ozerskoye,80.0,RU,1540653630.0,80.0,52.53,111.54,28.34,6.22
369,vila velha,40.0,BR,1540652400.0,55.0,-3.71,-38.6,86.0,17.22
370,bonnyville,40.0,CA,1540652400.0,80.0,54.27,-110.74,33.8,8.05
371,vardo,90.0,US,1540652100.0,93.0,39.62,-77.74,48.2,10.29
372,mercedes,0.0,UY,1540653631.0,84.0,-33.25,-58.03,68.88,5.99
373,ewa beach,1.0,US,1540652220.0,83.0,21.32,-158.01,78.8,10.25
374,la rioja,44.0,AR,1540653404.0,77.0,-29.41,-66.86,71.13,3.98
375,muros,40.0,ES,1540652400.0,76.0,42.77,-9.06,48.2,11.41
376,cherskiy,0.0,RU,1540653631.0,59.0,68.75,161.3,-12.3,1.97
377,sompeta,0.0,IN,1540653632.0,82.0,18.93,84.6,71.4,4.32
378,port macquarie,8.0,AU,1540652400.0,93.0,-31.43,152.91,60.8,6.93
379,ahuimanu,40.0,US,1540652220.0,83.0,21.44,-157.84,78.8,5.82
380,egvekinot,0.0,RU,1540653633.0,67.0,66.32,-179.17,-9.78,2.08
381,springbok,0.0,ZA,1540653633.0,7.0,-29.67,17.88,97.37,5.1
382,jimenez,40.0,PA,1540648800.0,88.0,8.54,-82.37,78.8,2.75
383,torbay,40.0,CA,1540652400.0,45.0,47.66,-52.73,44.6,24.16
384,college,90.0,US,1540652280.0,100.0,64.86,-147.8,30.2,2.98
385,riyadh,75.0,SA,1540648800.0,31.0,24.63,46.72,87.8,11.41
386,orcopampa,12.0,PE,1540653634.0,58.0,-15.27,-72.34,50.43,2.98
387,jijiga,12.0,ET,1540653634.0,37.0,9.35,42.8,69.96,5.44
388,utiroa,,,,,,,,
389,gayny,88.0,RU,1540653634.0,80.0,60.3,54.33,34.32,12.48
390,tera,75.0,CY,1540652400.0,53.0,34.97,32.42,71.6,1.12
391,almaty,40.0,KZ,1540650600.0,46.0,43.24,76.95,53.6,2.86
392,loukhi,12.0,RU,1540653635.0,91.0,66.08,33.04,30.36,8.57
393,vaitupu,,,,,,,,
394,broken hill,92.0,AU,1540653635.0,43.0,-31.97,141.45,64.34,9.69
395,san juan,75.0,PH,1540648800.0,69.0,14.6,121.03,82.4,2.24
396,nesebar,0.0,BG,1540652400.0,56.0,42.66,27.74,69.8,10.29
397,kashi,,,,,,,,
398,beloha,0.0,MG,1540653637.0,51.0,-25.17,45.06,73.34,14.83
399,sumbe,12.0,AO,1540653637.0,87.0,-11.2,13.84,81.57,8.9
400,arman,90.0,RU,1540648800.0,100.0,59.7,150.17,39.2,2.24
401,axim,0.0,GH,1540653638.0,100.0,4.87,-2.24,81.57,10.69
402,puerto madryn,0.0,AR,1540653638.0,65.0,-42.77,-65.04,64.2,7.9
403,marshall,75.0,US,1540650900.0,87.0,39.39,-87.69,48.2,8.05
404,babanusah,,,,,,,,
405,vila franca do campo,75.0,PT,1540652400.0,63.0,37.72,-25.43,66.2,19.46
406,north bend,40.0,US,1540652160.0,93.0,43.41,-124.22,55.4,8.05
407,puerto ayacucho,40.0,CO,1540648800.0,70.0,5.66,-67.63,86.0,3.36
408,serowe,0.0,BW,1540653639.0,18.0,-22.4,26.7,83.82,19.75
409,itoman,75.0,JP,1540652160.0,52.0,26.12,127.67,71.6,16.11
410,wanaka,76.0,NZ,1540653640.0,84.0,-44.7,169.14,35.94,1.97
411,birobidzhan,88.0,RU,1540653640.0,96.0,48.79,132.93,35.13,12.37
412,lavrentiya,0.0,RU,1540653640.0,100.0,65.58,-170.99,29.51,27.25
413,lalibela,24.0,ET,1540653640.0,35.0,12.04,39.05,61.64,1.63
414,buariki,,,,,,,,
415,jacareacanga,12.0,BR,1540653641.0,75.0,-6.22,-57.76,86.84,2.98
416,nouadhibou,36.0,MR,1540648800.0,45.0,20.93,-17.03,84.2,19.46
417,alofi,92.0,NU,1540652400.0,94.0,-19.06,-169.92,73.4,4.7
418,honiara,20.0,SB,1540652400.0,88.0,-9.43,159.96,77.0,1.86
419,paso de patria,0.0,AR,1540648800.0,53.0,-27.25,-58.55,75.2,10.29
420,yulara,75.0,AU,1540652400.0,82.0,-25.24,130.99,66.2,9.17
421,lufilufi,40.0,WS,1540648800.0,94.0,-13.87,-171.6,77.0,3.36
422,poltava,56.0,UA,1540653364.0,71.0,49.59,34.55,51.92,14.94
423,delaware,90.0,US,1540652280.0,100.0,40.3,-83.07,48.2,8.05
424,tidore,,,,,,,,
425,halalo,,,,,,,,
426,vaitape,48.0,PF,1540653643.0,100.0,-16.52,-151.75,76.67,6.22
427,khuzhir,36.0,RU,1540653643.0,85.0,53.19,107.35,40.35,12.48
428,lieksa,48.0,FI,1540653643.0,77.0,63.32,30.02,30.9,6.44
429,saint-georges,68.0,CA,1540653644.0,62.0,46.12,-70.67,33.29,4.76
430,sibolga,88.0,ID,1540653644.0,100.0,1.74,98.78,70.86,1.41
431,seymchan,36.0,RU,1540653644.0,98.0,62.93,152.39,12.81,2.53
432,mecca,0.0,SA,1540653644.0,28.0,21.43,39.83,89.76,7.56
433,sao mateus,44.0,BR,1540653645.0,85.0,-18.72,-39.86,82.02,16.73
434,bilma,0.0,NE,1540653645.0,13.0,18.69,12.92,99.89,6.78
435,porto novo,75.0,BR,1540648800.0,61.0,-23.68,-45.44,82.4,17.22
436,poya,0.0,NC,1540653645.0,100.0,-21.35,165.16,71.4,1.63
437,meulaboh,56.0,ID,1540653507.0,100.0,4.14,96.13,76.67,0.74
438,waipawa,88.0,NZ,1540653564.0,85.0,-39.94,176.59,54.93,3.76
439,marquette,90.0,US,1540651800.0,93.0,46.54,-87.4,39.2,5.82
440,otane,92.0,NZ,1540653647.0,90.0,-39.89,176.62,54.39,3.53
441,gizo,0.0,IL,1540651800.0,46.0,31.8,34.94,73.4,11.41
442,wakkanai,32.0,JP,1540653647.0,100.0,45.41,141.67,53.13,25.68
443,moss point,1.0,US,1540652160.0,59.0,30.41,-88.53,62.6,6.93
444,turzovka,90.0,SK,1540652400.0,93.0,49.41,18.63,48.2,4.7
445,kiunga,92.0,PG,1540653648.0,92.0,-6.12,141.3,75.14,2.19
446,tsabong,0.0,BW,1540653648.0,9.0,-26.02,22.4,95.39,6.22
447,mackay,20.0,CA,1540652400.0,59.0,53.65,-115.58,37.4,9.17
448,puerto cortes,,,,,,,,
449,knysna,0.0,ZA,1540648800.0,73.0,-34.04,23.05,69.8,12.75
450,luderitz,0.0,NA,1540648800.0,35.0,-26.65,15.16,84.2,6.93
451,tancheng,0.0,CN,1540653649.0,46.0,33.44,116.55,45.44,7.78
452,semirom,64.0,IR,1540653649.0,85.0,31.41,51.57,45.84,2.42
453,clyde river,90.0,CA,1540652400.0,92.0,70.47,-68.59,15.8,23.04
454,solnechnyy,92.0,RU,1540653650.0,100.0,50.72,136.64,44.36,9.24
455,sucua,8.0,EC,1540653650.0,81.0,-2.46,-78.17,75.86,5.66
456,campbell river,75.0,CA,1540652400.0,100.0,50.02,-125.24,42.8,2.24
457,phan rang,,,,,,,,
458,southbridge,90.0,US,1540653180.0,93.0,42.08,-72.03,48.2,19.46
459,comodoro rivadavia,20.0,AR,1540648800.0,40.0,-45.87,-67.48,68.0,19.46
460,palimbang,75.0,PH,1540648800.0,74.0,14.9,120.78,82.4,2.24
461,kenai,90.0,US,1540652160.0,93.0,60.55,-151.26,37.4,5.82
462,boulder,1.0,US,1540652760.0,27.0,40.02,-105.27,64.4,20.8
463,qui nhon,,,,,,,,
464,hofn,24.0,IS,1540653651.0,100.0,64.25,-15.21,35.13,3.76
465,porosozero,80.0,RU,1540653652.0,89.0,62.72,32.71,31.98,6.55
466,culiacan,5.0,MX,1540651200.0,88.0,24.8,-107.39,75.2,9.17
467,wad madani,,,,,,,,
468,pangody,68.0,RU,1540653652.0,88.0,65.85,74.49,33.42,22.88
469,padang,36.0,ID,1540653567.0,100.0,-0.92,100.36,80.58,2.64
470,pensacola,1.0,US,1540652100.0,67.0,30.42,-87.22,60.8,9.17
471,camacha,40.0,PT,1540652400.0,73.0,33.08,-16.33,69.8,17.22
472,krasnoselkup,,,,,,,,
473,peruibe,48.0,BR,1540653656.0,86.0,-24.32,-47.0,78.29,17.29
474,atar,24.0,MR,1540652400.0,12.0,20.52,-13.05,102.2,9.17
475,gurskoye,,,,,,,,
476,mutsamudu,,,,,,,,
477,nauta,44.0,PE,1540653657.0,88.0,-4.51,-73.58,81.93,3.87
478,shimoda,0.0,JP,1540653657.0,100.0,34.7,138.93,67.71,24.11
479,wanlaweyn,36.0,SO,1540653658.0,96.0,2.62,44.89,74.1,3.98
480,makakilo city,1.0,US,1540652220.0,83.0,21.35,-158.09,78.8,10.25
481,ilo,36.0,PE,1540653658.0,90.0,-17.65,-71.34,65.51,3.76
482,fort nelson,75.0,CA,1540652400.0,60.0,58.81,-122.69,42.8,11.41
483,miri,44.0,NG,1540653473.0,46.0,10.31,9.75,86.88,1.74
484,nome,1.0,US,1540652100.0,77.0,30.04,-94.42,66.2,4.32
485,louis trichardt,0.0,ZA,1540653659.0,21.0,-23.04,29.91,82.07,9.01
486,biak,0.0,ID,1540653659.0,98.0,-0.91,122.88,76.94,3.42
487,nguiu,,,,,,,,
488,bushehr,90.0,IR,1540650600.0,69.0,28.97,50.84,78.8,19.46
489,longyan,0.0,CN,1540653660.0,83.0,25.1,117.03,52.91,1.86
490,harper,1.0,US,1540652100.0,88.0,30.3,-99.24,62.6,4.7
491,san angelo,1.0,US,1540651860.0,82.0,31.46,-100.44,62.6,4.7
492,liverpool,20.0,GB,1540651800.0,52.0,53.41,-2.98,46.4,16.11
493,gazojak,92.0,TM,1540653660.0,76.0,41.19,61.4,59.12,19.64
494,pravec,,,,,,,,
495,geraldton,90.0,CA,1540652400.0,86.0,49.72,-86.95,33.8,8.05
496,ayagoz,32.0,KZ,1540653661.0,65.0,47.96,80.43,30.72,3.65
497,hamilton,75.0,BM,1540648500.0,64.0,32.3,-64.78,75.2,20.8
498,jumla,88.0,NP,1540653565.0,96.0,29.28,82.18,31.31,1.86
499,olinda,90.0,EC,1540648800.0,73.0,-2.03,-79.75,75.2,8.05
500,rehti,20.0,IN,1540650600.0,31.0,22.74,77.43,78.8,5.82
501,valparaiso,40.0,US,1540653300.0,58.0,41.47,-87.06,53.6,8.05
502,lampazos de naranjo,0.0,MX,1540653663.0,77.0,27.02,-100.51,63.44,3.53
503,senica,90.0,SK,1540652400.0,87.0,48.68,17.37,51.8,5.82
504,tubruq,,,,,,,,
505,pochinki,32.0,RU,1540653663.0,94.0,54.7,44.85,32.34,8.01
506,jinka,24.0,ET,1540653664.0,70.0,5.79,36.57,70.59,1.74
507,kuching,75.0,MY,1540652400.0,94.0,1.56,110.34,78.8,2.24
508,oum hadjer,24.0,TD,1540653667.0,20.0,13.3,19.7,99.89,9.69
509,hun,75.0,BE,1540651800.0,87.0,50.34,4.87,48.2,5.82
510,lahad datu,32.0,MY,1540653668.0,99.0,5.02,118.33,78.06,2.98
511,karratha,0.0,AU,1540653668.0,48.0,-20.74,116.85,76.26,12.82
512,umkomaas,0.0,ZA,1540653668.0,60.0,-30.21,30.8,74.87,4.21
513,fukue,0.0,JP,1540650600.0,63.0,35.03,136.69,62.6,16.11
514,solovetskiy,,,,,,,,
515,santa maria,75.0,BR,1540648800.0,68.0,-29.69,-53.81,69.8,5.82
516,flinders,90.0,AU,1540648800.0,87.0,-34.58,150.85,60.8,4.7
517,mashhad,75.0,IR,1540650600.0,33.0,36.3,59.61,75.2,13.87
518,newport,80.0,GB,1540651800.0,100.0,51.59,-3.0,44.6,11.41
519,bodden town,20.0,KY,1540648800.0,79.0,19.28,-81.25,86.0,5.82
520,maceio,0.0,BR,1540652400.0,46.0,-9.67,-35.74,89.6,16.11
521,nyurba,76.0,RU,1540653502.0,88.0,63.29,118.35,22.08,2.53
522,morondava,0.0,MG,1540653671.0,66.0,-20.3,44.28,82.07,8.68
523,kapuskasing,90.0,CA,1540652400.0,86.0,49.42,-82.43,28.4,6.93
524,anadyr,0.0,RU,1540648800.0,67.0,64.73,177.51,19.4,6.71
525,borgarnes,90.0,IS,1540648800.0,55.0,64.54,-21.92,37.4,11.41
526,arcata,90.0,US,1540652100.0,100.0,40.87,-124.08,55.4,3.36
527,cayenne,75.0,GF,1540650600.0,66.0,4.94,-52.33,87.8,6.93
528,tucuma,,,,,,,,
529,pasni,0.0,PK,1540653672.0,92.0,25.26,63.48,80.58,3.42
530,iskateley,80.0,RU,1540653422.0,93.0,67.68,53.15,31.17,16.06
531,klaksvik,56.0,FO,1540651800.0,75.0,62.23,-6.59,42.8,17.22
532,great yarmouth,75.0,GB,1540651800.0,93.0,52.61,1.73,42.8,6.93
533,nalut,32.0,LY,1540653673.0,46.0,31.86,10.98,76.22,7.45
534,raudeberg,32.0,NO,1540651800.0,65.0,61.99,5.14,41.0,10.29
535,jinchang,0.0,CN,1540653542.0,75.0,38.52,102.19,27.48,3.09
536,kamenskoye,,,,,,,,
537,lasa,75.0,CY,1540652400.0,53.0,34.92,32.53,71.6,1.12
538,bereda,40.0,ES,1540652400.0,62.0,43.27,-7.54,51.8,9.17
539,ixtapa,40.0,MX,1540648200.0,100.0,20.71,-105.21,75.2,2.75
540,carlsbad,75.0,CZ,1540652400.0,75.0,50.23,12.87,46.4,3.36
541,bouar,44.0,CF,1540653675.0,92.0,5.94,15.59,75.77,5.88
542,zhanatas,,,,,,,,
543,baruun-urt,76.0,MN,1540653523.0,79.0,46.68,113.28,32.52,15.05
544,mount isa,88.0,AU,1540652400.0,24.0,-20.73,139.49,89.6,13.87
545,barcelona,75.0,ES,1540652400.0,87.0,41.38,2.18,55.4,9.17
546,saint cloud,90.0,US,1540651320.0,100.0,45.56,-94.16,48.2,4.21
547,deputatskiy,88.0,RU,1540653553.0,79.0,69.3,139.9,0.66,3.09
548,rehoboth,88.0,NA,1540653676.0,16.0,-23.31,17.08,84.0,11.03
549,kasra,,,,,,,,
550,porto velho,40.0,BR,1540648800.0,66.0,-8.75,-63.87,86.0,4.7
551,thinadhoo,100.0,MV,1540653676.0,100.0,0.53,72.93,83.28,13.94
552,kasongo,24.0,CD,1540653677.0,51.0,-4.43,26.67,87.6,2.98
553,yumen,0.0,CN,1540653677.0,59.0,40.29,97.04,31.76,5.44
554,bowen,0.0,AU,1540648800.0,94.0,-20.01,148.25,73.4,8.05
555,nhulunbuy,40.0,AU,1540652400.0,78.0,-12.18,136.78,75.2,6.78
556,andra,12.0,RU,1540653677.0,74.0,62.52,65.89,33.69,10.36
557,austin,1.0,US,1540652160.0,68.0,30.27,-97.74,66.2,3.36
558,dukat,0.0,RS,1540653678.0,41.0,42.44,22.31,62.54,3.65
559,acapulco,40.0,MX,1540648020.0,88.0,16.86,-99.88,78.8,3.36
560,grants,1.0,US,1540652100.0,74.0,35.15,-107.85,37.4,3.36
561,minab,40.0,IR,1540650600.0,74.0,27.15,57.07,84.2,4.7
562,gushikawa,75.0,JP,1540652160.0,52.0,26.35,127.87,71.6,16.11
563,spearfish,40.0,US,1540652100.0,47.0,44.49,-103.86,57.2,5.32
564,adrar,0.0,DZ,1540652400.0,32.0,27.87,-0.29,82.4,5.82
565,yaan,20.0,NG,1540653679.0,71.0,7.38,8.57,88.14,4.76
566,tarudant,,,,,,,,
567,peniche,20.0,PT,1540652400.0,41.0,39.36,-9.38,60.8,26.4
568,rosarito,40.0,CO,1540648800.0,72.0,4.91,-75.23,69.8,2.24
569,pangoa,56.0,PE,1540653680.0,81.0,-12.12,-73.0,74.46,2.3
570,dole,90.0,FR,1540652400.0,81.0,47.09,5.49,46.4,10.29
571,beira,40.0,ES,1540652400.0,62.0,43.2,-8.36,51.8,9.17
572,ngunguru,76.0,NZ,1540653681.0,100.0,-35.62,174.5,62.13,18.97
573,mega,56.0,ET,1540653681.0,98.0,4.06,38.32,62.13,2.98
574,kytlym,,,,,,,,
575,sorland,92.0,NO,1540653681.0,100.0,67.67,12.69,42.02,22.1
576,armeria,40.0,MX,1540651200.0,83.0,18.93,-103.97,82.4,3.42
577,rungata,,,,,,,,
578,venezuela,0.0,CU,1540653682.0,91.0,21.74,-78.8,83.82,3.98
579,nuevo progreso,1.0,US,1540652100.0,83.0,26.05,-97.95,73.4,4.76
580,fort saint john,,,,,,,,
581,chitral,0.0,PK,1540653683.0,76.0,35.85,71.79,17.81,1.19
582,san miguel,40.0,AR,1540648800.0,59.0,-34.54,-58.72,66.2,4.43
583,maykain,,,,,,,,
584,acuitzio,68.0,MX,1540653684.0,96.0,20.34,-101.98,59.12,3.2
585,kyrylivka,20.0,UA,1540653684.0,68.0,47.32,37.67,50.43,10.02
586,conde,8.0,BR,1540653685.0,63.0,-11.81,-37.61,87.15,14.5
587,leh,24.0,IN,1540653685.0,80.0,34.16,77.58,-2.27,2.19
588,sanming,0.0,CN,1540653685.0,87.0,26.24,117.6,51.74,1.97
589,huanren,88.0,CN,1540653686.0,77.0,41.26,125.37,32.52,4.65
590,turukhansk,92.0,RU,1540653686.0,90.0,65.8,87.96,36.84,19.75
591,lakatoro,24.0,VU,1540653545.0,100.0,-16.11,167.42,75.45,5.21
592,ternate,75.0,PH,1540648800.0,69.0,14.29,120.72,82.4,2.24
